[{"idAloj":0,"tipo":"Alojamientos","nombre":"7KALE BED \u0026amp; BREAKFAST","descripcion":"Situada en pleno centro de Bilbao resulta perfecta para visitar a pie algunos de los principales ...","direccion":"Santa María  13","localidad":"Bilbao","telefono":"649631747","email":"7kale@7kalebnb.com","web":"www.7kalebnb.com","capacidad":22,"latitud":43.25783,"longitud":-2.925418},{"idAloj":0,"tipo":"Alojamientos","nombre":"AB DOMINI","descripcion":"La pensión Ab Domini se encuentra en pleno corazón de la Parte Vieja de San Sebastián. Las habita...","direccion":"San Juan  8","localidad":"Costa Vasca,San Sebastián","telefono":"943 420 431","email":"reservas@abpensiones.com","web":"http://www.abpensiones.com/","capacidad":10,"latitud":43.324387,"longitud":-1.9836416},{"idAloj":0,"tipo":"Alojamientos","nombre":"ABANDO","descripcion":"Hotel de cuatro estrellas ubicado en un moderno edificio reformado de decoración vanguardi...","direccion":"Colón de Larreategui  9","localidad":"Bilbao","telefono":"944 236 200","email":"abando@aranzazu-hoteles.com","web":"http://www.aranzazu-hoteles.com","capacidad":259,"latitud":43.262478,"longitud":-2.927723},{"idAloj":0,"tipo":"Alojamientos","nombre":"ABBA JAZZ","descripcion":"Hotel ubicado en la zona comercial y de negocios de Vitoria-Gasteiz. Está junto a algunos de los ...","direccion":"Florida 7","localidad":"Vitoria-Gasteiz","telefono":"945101346","email":"abbajazz@abbahoteles.com","web":"http://www.abbajazzvitoriahotel.com/","capacidad":37,"latitud":42.843597,"longitud":-2.67505},{"idAloj":0,"tipo":"Alojamientos","nombre":"AC HOTEL GENERAL ALAVA","descripcion":"Moderno hotel de tres estrellas situado en el centro de Vitoria-Gasteiz, junto al Palacio de Cong...","direccion":"Avenida Gasteiz 79","localidad":"Vitoria-Gasteiz","telefono":"945215000","email":"acgeneralalava@ac-hotels.com","web":"www.ac-hotels.com","capacidad":191,"latitud":42.850834,"longitud":-2.6811924},{"idAloj":0,"tipo":"Alojamientos","nombre":"ACHURI","descripcion":"Céntrico hotel de una estrella ubicado en la capital alavesa. Dispone de 40 habitaciones, dobles ...","direccion":"Rioja  11","localidad":"Vitoria-Gasteiz","telefono":"945255800","email":"hotelachurivitoria@gmail.com","web":" ","capacidad":66,"latitud":42.843067,"longitud":-2.668222},{"idAloj":0,"tipo":"Alojamientos","nombre":"AGARIMO","descripcion":"Este alojamiento está ubicado en la zona industrial de la margen izquierda, a tan sólo 15 minutos...","direccion":"Galindo Auzoa z.g.","localidad":"Bilbao","telefono":"944956296","email":"agarimo@hotmail.com","web":"www.hostalrestauranteagarimo.es","capacidad":72,"latitud":43.3033,"longitud":-3.0165408},{"idAloj":0,"tipo":"Alojamientos","nombre":"AGINAGA","descripcion":"Aginaga es un hotel de diseño moderno que ha apostado por la eficiencia energética sin dejar de l...","direccion":"Aginaga Auzoa 31","localidad":"Montes y Valles vascos","telefono":"943 370 668","email":"info@aginagahotela.com","web":"http://www.aginagahotela.com/","capacidad":44,"latitud":43.27643,"longitud":-2.0725682},{"idAloj":0,"tipo":"Alojamientos","nombre":"AIA","descripcion":"Situado a 2 minutos a pie de la playa de la Zurriola y del Palacio de Congresos  Kursaal. El cent...","direccion":"Zabaleta  40","localidad":"Costa Vasca,San Sebastián","telefono":"943 270 011","email":"albpaulo@hotmail.com","web":"pensionaia.com","capacidad":9,"latitud":43.32543,"longitud":-1.9729131},{"idAloj":0,"tipo":"Alojamientos","nombre":"AIDA","descripcion":"Pensión de 2 estrellas ubicada cerca de la estación de RENFE, de los Nuevos Juzgados, del Palacio...","direccion":"Iztueta  9","localidad":"Costa Vasca,San Sebastián","telefono":"943 327 800","email":"aida@pensionesconencanto.com","web":"http://www.pensionesconencanto.com","capacidad":26,"latitud":43.32121,"longitud":-1.9752845},{"idAloj":0,"tipo":"Alojamientos","nombre":"AINTZIETA","descripcion":"Alojamiento ubicado en una zona tranquila de la ciudad, en el barrio de Loiola muy cerca de la es...","direccion":"Aintzieta Ibilbidea 15","localidad":"San Sebastián","telefono":"943 457 540","email":" ","web":" ","capacidad":6,"latitud":43.305023,"longitud":-1.9626131},{"idAloj":0,"tipo":"Alojamientos","nombre":"AITANA","descripcion":"Moderno hotel situado al lado del recinto ferial FICOBA. Dispone de 19 habitaciones provistas de ...","direccion":"Iparralde Etorbidea  51","localidad":"Montes y Valles vascos","telefono":"943 635 700","email":"hotelaitana@hotelaitana.com","web":"http://www.hotelaitana.com","capacidad":32,"latitud":43.348564,"longitud":-1.7866731},{"idAloj":0,"tipo":"Alojamientos","nombre":"AKELARRE","descripcion":"Pensión de dos estrellas ubicada en el municipio de Gernika-Lumo. Dispone de 17 habitaciones dobl...","direccion":"Barrenkalea  5","localidad":"Costa Vasca,Montes y Valles vascos","telefono":"946270197","email":"akelarre@hotelakelarre.com","web":"www.hotelakelarre.com","capacidad":32,"latitud":43.3151,"longitud":-2.6776042},{"idAloj":0,"tipo":"Alojamientos","nombre":"AKELARRE","descripcion":"Es un hotel de lujo donde el chef Pedro Subijana eleva la experiencia de su icónico restau...","direccion":"Padre Orcolaga, 56 (Igeldo)","localidad":"San Sebastián","telefono":"943311208","email":"info@akelarre.net","web":"https://www.akelarre.net/es/hotel","capacidad":44,"latitud":43.307404,"longitud":-2.0440845},{"idAloj":0,"tipo":"Alojamientos","nombre":"ALAI","descripcion":"Hotel situado en el alto de Etxegarate, en Idiazabal. Dispone de 18 habitaciones provistas de cal...","direccion":"Ursuaran Auzoa 22","localidad":"Montes y Valles vascos","telefono":"943 187 655","email":"etxegarate2@hotmail.com","web":"http://www.casaalai.com","capacidad":30,"latitud":42.949425,"longitud":-2.2276504},{"idAloj":0,"tipo":"Alojamientos","nombre":"ALAMEDA","descripcion":"Pensión de dos estrellas ubicada en el centro de la capital guipuzcoana que dispone de habitacion...","direccion":"Boulevard  16","localidad":"San Sebastián,Costa Vasca","telefono":"943426449","email":"reservas@pensionalameda.com","web":"www.pensionalameda.com","capacidad":20,"latitud":43.322304,"longitud":-1.9842553},{"idAloj":0,"tipo":"Alojamientos","nombre":"ALBINO","descripcion":"La pensión Albino se encuentra en el barrio de Santutxu a cinco minutos andando de la Basílica de...","direccion":"Pablo Zamarripa  10","localidad":"Bilbao","telefono":"647541708","email":" ","web":" ","capacidad":9,"latitud":43.256145,"longitud":-2.9125662},{"idAloj":0,"tipo":"Alojamientos","nombre":"ALAMEDA","descripcion":"Hotel ubicado en una hermosa villa, a pocos metros de la playa de Zarautz. Dispone de 40 habitaci...","direccion":"Seitximeneta  4","localidad":"Costa Vasca","telefono":"943 132 737","email":"administracion@hotelalameda.net","web":"http://www.hotelalameda.net","capacidad":73,"latitud":43.285538,"longitud":-2.1701717},{"idAloj":0,"tipo":"Alojamientos","nombre":"ALCAZAR","descripcion":"Hotel ubicado en el municipio fronterizo de Irun, en el centro de la localidad, rodeado de jardin...","direccion":"Iparralde  Etorbidea 11","localidad":"Montes y Valles vascos","telefono":"943 620 900","email":"info@hotelalcazar.net","web":"http://www.hotelalcazar.net","capacidad":87,"latitud":43.34138,"longitud":-1.7904626},{"idAloj":0,"tipo":"Alojamientos","nombre":"ALBIZABAL","descripcion":"Este alojamiento está situado en el centro de Amurrio, junto a la zona de tiendas y restauración....","direccion":"Aiara  10","localidad":"Montes y Valles vascos","telefono":"945 066 124","email":" ","web":"http://www.facebook.com/people/Amurrio-Albizabal/100008862150240","capacidad":5,"latitud":43.051994,"longitud":-3.0034978},{"idAloj":0,"tipo":"Alojamientos","nombre":"ALDAMA","descripcion":"Situado en una finca ajardinada en el centro de Amurrio, el Hotel Restaurante Aldama es un singul...","direccion":"Dionisio Aldama  12","localidad":"Montes y Valles vascos","telefono":"945066646","email":"hotel@hotelrestaurantealdama.com","web":"hotelrestaurantealdama.com","capacidad":15,"latitud":43.050106,"longitud":-3.001129},{"idAloj":0,"tipo":"Alojamientos","nombre":"ALDAGAIA","descripcion":"Constan de 4 apartamentos con entrada independiente y con una cuidada y moderna decoración. Ubica...","direccion":"Portu Auzoa 9","localidad":"Montes y Valles vascos,San Sebastián","telefono":"943 333 599","email":"info@aldagaiaapartamentuak.eus","web":"http://www.aldagaiaapartamentuak.eus","capacidad":16,"latitud":43.263077,"longitud":-1.9742894},{"idAloj":0,"tipo":"Alojamientos","nombre":"ALDATZETA","descripcion":"El alojamiento se encuentra en el casco antiguo de Bermeo, a 3 y 12 kilómetros, respectivamente, ...","direccion":"Erremedio  24","localidad":"Costa Vasca","telefono":"946187703","email":"reservas@aldatzeta.com","web":" ","capacidad":10,"latitud":43.419823,"longitud":-2.723961},{"idAloj":0,"tipo":"Alojamientos","nombre":"ALDAMAR","descripcion":"Pensión de 2 estrellas ubicada en la capital guipuzcoana que dispone de 10 habitaciones dobles pr...","direccion":"Aldamar  2","localidad":"San Sebastián,Costa Vasca","telefono":"943 430 143","email":"pension@pensionaldamar.com","web":"http://www.pensionaldamar.com","capacidad":20,"latitud":43.32317,"longitud":-1.9820594},{"idAloj":0,"tipo":"Alojamientos","nombre":"ALICIA ZZZ B\u0026amp;B","descripcion":"AliciaZzz Bed and Breakfast Bilbao (B and B Bilbao) está ambientado en las aventuras de Alicia en...","direccion":"Sombrerería  1","localidad":"Bilbao","telefono":"946792198","email":"info@aliciazzz.com","web":"www.aliciazzz.com","capacidad":11,"latitud":43.25855,"longitud":-2.9233289},{"idAloj":0,"tipo":"Alojamientos","nombre":"ALEMANA","descripcion":"Pensión de 2 estrellas ubicada en la capital guipuzcoana que dispone de 20 habitaciones dobles pr...","direccion":"San Martín 53","localidad":"Costa Vasca,San Sebastián","telefono":"943 462 544","email":"reservas@hostalalemana.com","web":"http://www.hostalalemana.com","capacidad":41,"latitud":43.315575,"longitud":-1.9867544},{"idAloj":0,"tipo":"Alojamientos","nombre":"ALTAIR","descripcion":"Pensión de 2 estrellas ubicada en la capital guipuzcoana que dispone de 7 habitaciones dobles y u...","direccion":"Padre Larroca 3","localidad":"Costa Vasca,San Sebastián","telefono":"943 293 133","email":"pensionaltair@pension-altair.com","web":"http://www.pension-altair.com","capacidad":15,"latitud":43.322544,"longitud":-1.973791},{"idAloj":0,"tipo":"Alojamientos","nombre":"ALMA DE ROMERO","descripcion":"Hotel ubicado en plena naturaleza, en el Valle de Carranza y rodeado de un jardín de 10.000 m². D...","direccion":"Ahedo Auzoa 25","localidad":"Montes y Valles vascos","telefono":"946 806 869","email":"lourdes@almaderomero.com","web":"http://www.almaderomero.com","capacidad":15,"latitud":43.229862,"longitud":-3.3558578},{"idAloj":0,"tipo":"Alojamientos","nombre":"ALTXERRI","descripcion":"Alojamiento ubicado en el municipio de  Aia, se encuentra cerca del Parque Natural de Pagoeta que...","direccion":"Olaskoegia Auzoa 32","localidad":"Montes y Valles vascos","telefono":"943830762","email":" ","web":" ","capacidad":9,"latitud":43.268578,"longitud":-2.133306},{"idAloj":0,"tipo":"Alojamientos","nombre":"ALTAMIRA 15","descripcion":"Situado en el barrio bilbaíno de Altamira, el visitante podrá encontrar en este apartamento todas...","direccion":"Barrio Altamira Nº 15","localidad":"Bilbao","telefono":" ","email":"atalltamira15@gmail.com","web":" ","capacidad":14,"latitud":43.262302,"longitud":-2.9630792},{"idAloj":0,"tipo":"Alojamientos","nombre":"AMAIUR","descripcion":"La pensión Amaiur se encuentra en el corazón de la parte vieja donostiarra.  Su u...","direccion":"31 de Agosto Kalea 44","localidad":"San Sebastián","telefono":"943429654","email":"info@pensionamaiur.com","web":"http://www.pensionamaiur.com","capacidad":9,"latitud":43.324005,"longitud":-1.9861454},{"idAloj":0,"tipo":"Alojamientos","nombre":"AMAIA","descripcion":"El establecimiento ocupa una casa con jardín situada a pocos metros del casco histórico de Orduña...","direccion":"San Francisco Auzoa 22","localidad":"Montes y Valles vascos","telefono":"945 383 090","email":" ","web":" ","capacidad":19,"latitud":42.992092,"longitud":-3.0099156},{"idAloj":0,"tipo":"Alojamientos","nombre":"AMARA","descripcion":"Situada en el barrio de Amara, cerca del estadio de fútbol de Anoeta, y muy bien comunicada con e...","direccion":"Isabel II Etorbidea 2","localidad":"San Sebastián","telefono":"943 468 472","email":"pensionamara@hotmail.es","web":"http://www.pensionamara.es/","capacidad":12,"latitud":43.305153,"longitud":-1.9752825},{"idAloj":0,"tipo":"Alojamientos","nombre":"AMARICA","descripcion":"Hotel ubicado en el centro de Vitoria-Gasteiz, en una zona de gran actividad comercial. Dispone d...","direccion":"La Florida 11","localidad":"Vitoria-Gasteiz","telefono":"945130506","email":"alvarito84_@hotmail.com","web":"http://www.hoteleamarica.com","capacidad":15,"latitud":0.0,"longitud":0.0},{"idAloj":0,"tipo":"Alojamientos","nombre":"AMALUR","descripcion":"Situada en el centro de la ciudad, junto a la playa de La Concha, permite al viajero, disfrutar d...","direccion":"San Martín 43","localidad":"San Sebastián","telefono":"943 460 861","email":" ","web":" ","capacidad":10,"latitud":43.316124,"longitud":-1.9853501},{"idAloj":0,"tipo":"Alojamientos","nombre":"AMALURRA","descripcion":"Hotel y albergue situado en Artzentales, en una zona rural muy tranquila y rodeada de verde. El h...","direccion":"La Reneja Auzoa 35","localidad":"Montes y Valles vascos","telefono":"946109540","email":"amalurra@arrakis.es","web":"http://www.hotelamalurra.es","capacidad":32,"latitud":0.0,"longitud":0.0},{"idAloj":0,"tipo":"Alojamientos","nombre":"AMETZAGAÑA","descripcion":"La pensión Ametzagaña está ubicada entre los barrios donostiarras de Loyola y Martutene, unos 4 k...","direccion":"Uba Bidea  61","localidad":"Costa Vasca,San Sebastián","telefono":" ","email":"info@ametzagana.com","web":"www.ametzagana.com","capacidad":91,"latitud":0.0,"longitud":0.0},{"idAloj":0,"tipo":"Alojamientos","nombre":"ANDAMUR-SAN ROMAN","descripcion":"Hotel de dos estrellas ubicado en la estación de servicio Andamur de San Román. Dispone de 45 hab...","direccion":"Durruma 2","localidad":"Montes y Valles vascos","telefono":"945314783","email":"hotelsanroman@andamur.com","web":"www.andamur.com","capacidad":85,"latitud":42.865536,"longitud":-2.313342},{"idAloj":0,"tipo":"Alojamientos","nombre":"AMAYA","descripcion":"Situada en pleno corazón de Vitoria-Gasteiz, muy cerca de la Plaza de la Virgen Blanca, el alojam...","direccion":"La Paz  15","localidad":"Vitoria-Gasteiz","telefono":"945255497","email":" ","web":"http://www.pensionamaia.com/","capacidad":19,"latitud":42.84584,"longitud":-2.668175},{"idAloj":0,"tipo":"Alojamientos","nombre":"AMAZKAR","descripcion":"Amazkar es una pensión moderna y de fácil acceso (está bien comunicada con la autovía A-8 y hay u...","direccion":"Kontzejuerreka  2","localidad":"Montes y Valles vascos","telefono":"658 931 891","email":"pensionamazkar@gmail.com","web":"http://www.pensionamazkar.com/","capacidad":5,"latitud":43.299118,"longitud":-1.8607687},{"idAloj":0,"tipo":"Alojamientos","nombre":"ANDRA MARI","descripcion":"Apartamentos emplazados en la villa de Bermeo, en un enclave natural de extraordinaria belleza, r...","direccion":"Andramari 11","localidad":"Costa Vasca","telefono":"626891661","email":"gotzonzabala@hotmail.com","web":"http://www.bermeoapartamentos.com","capacidad":12,"latitud":43.424267,"longitud":-2.7237127},{"idAloj":0,"tipo":"Alojamientos","nombre":"ANGIZ","descripcion":"Un hermoso caserío del siglo XVI alberga el hotel Angiz. El edificio, recientemente reformado, es...","direccion":"San Bartolome Auzoa 56","localidad":"Costa Vasca,Montes y Valles vascos","telefono":"656782664","email":"info@ecohotelruralangiz.com","web":"www.ecohotelruralangiz.com","capacidad":23,"latitud":43.376133,"longitud":-2.7043645},{"idAloj":0,"tipo":"Alojamientos","nombre":"ANDGO. COM MIRANDA","descripcion":"Moderno hotel construido en 2008 con 95 habitaciones dobles e individuales, todas ellas exteriore...","direccion":"Avenida Alava 1","localidad":"Montes y Valles vascos","telefono":"945356824","email":"rec.hotelandgo@ath-hoteles.com","web":"www.ath-hoteles.com","capacidad":180,"latitud":42.70067,"longitud":-2.9188442},{"idAloj":0,"tipo":"Alojamientos","nombre":"ANDOAIN","descripcion":"La pensión Andoain, toma su nombre del municipio en el que se encuentra, está ubicada a 11 km de ...","direccion":"Arantzibia 1","localidad":"Montes y Valles vascos","telefono":"9431 15 811","email":"info@pensionandoain.com","web":"http://www.pensionandoain.com","capacidad":9,"latitud":43.221714,"longitud":-2.0151844},{"idAloj":0,"tipo":"Alojamientos","nombre":"ANOETA","descripcion":"Pensión situada junto al estadio de Anoeta, a la entrada de Donostia-San Sebastián. Ofrece un lug...","direccion":"Madrid Etorbidea 13","localidad":"San Sebastián,Costa Vasca","telefono":"676 478 197","email":"reservas@pensionanoeta.com","web":"http://www.pensionanoeta.com","capacidad":15,"latitud":43.3041,"longitud":-1.976053},{"idAloj":0,"tipo":"Alojamientos","nombre":"ANSOTEGI ERROTA","descripcion":"El Hotel Ansotegi se encuentra enclavado en un valle próximo a la localidad de Etxebarria, en un ...","direccion":"Altzaa Auzoa 15","localidad":"Montes y Valles vascos","telefono":"946 169 100","email":"antsotegi@antsotegi.com","web":"http://www.hotelansotegi.com","capacidad":27,"latitud":43.25748,"longitud":-2.4885373},{"idAloj":0,"tipo":"Alojamientos","nombre":"ANNE","descripcion":"La pensión Anne se encuentra en el centro histórico de San Sebastián, desde ella es muy fácil acc...","direccion":"Esterlines  15","localidad":"San Sebastián","telefono":"943 421 438","email":" ","web":" ","capacidad":6,"latitud":43.322865,"longitud":-1.9849651},{"idAloj":0,"tipo":"Alojamientos","nombre":"ANOETA","descripcion":"Hotel de tres estrellas situado junto al Estadio de Anoeta, cerca del centro de la ciudad y de la...","direccion":"Anoeta  30","localidad":"San Sebastián,Costa Vasca","telefono":"943 451 499","email":"hotel@hotelanoeta.com","web":"http://www.hotelanoeta.com","capacidad":61,"latitud":43.302128,"longitud":-1.9721},{"idAloj":0,"tipo":"Alojamientos","nombre":"ARABA","descripcion":"Está situada en el centro de la ciudad, muy cerca de la estación de tren. Todas las habitaciones ...","direccion":"Independencia  30","localidad":"Vitoria-Gasteiz","telefono":"945269354","email":"info@pensionaraba.com","web":" ","capacidad":4,"latitud":42.84434,"longitud":-2.6689723},{"idAloj":0,"tipo":"Alojamientos","nombre":"ARABA","descripcion":"Todas las habitaciones del Hotel Araba son exteriores, están insonorizadas y cuentan con los sigu...","direccion":"Avenida Los Huetos 17","localidad":"Vitoria-Gasteiz","telefono":"945222669","email":"araba@restaurantearaba.com","web":"http://www.hotelaraba.com","capacidad":38,"latitud":42.853863,"longitud":-2.7002404},{"idAloj":0,"tipo":"Alojamientos","nombre":"APARTAMENTOS DIVAN","descripcion":"Las comodidades del hotel en casa Apartamentos Diván en Vitoria-Gasteiz, ofrece la calidez y ...","direccion":"Duque de Wellington, 25","localidad":"Vitoria-Gasteiz","telefono":"945102021","email":"recepcion@apartamentosdivan.com","web":"www.apartamentosdivan.com","capacidad":160,"latitud":42.861042,"longitud":-2.6932929},{"idAloj":0,"tipo":"Alojamientos","nombre":"ANZIZAR","descripcion":"Alojamiento situado en el centro de Hernani con 5 habitaciones dobles y 1 individual. A tan s...","direccion":"Nagusia  7","localidad":"Montes y Valles vascos,San Sebastián","telefono":"943 557 151","email":" ","web":" ","capacidad":11,"latitud":43.26566,"longitud":-1.9754542},{"idAloj":0,"tipo":"Alojamientos","nombre":"AREETA","descripcion":"La pensión Areeta se encuentra ubicada en la zona más céntrica de Las Arenas, en Getxo. Desde all...","direccion":"Mayor  13","localidad":"Costa Vasca","telefono":"944638136","email":"recepcion@pensionareeta.com","web":"www.pensionareeta.com","capacidad":10,"latitud":43.325336,"longitud":-3.0140605},{"idAloj":0,"tipo":"Alojamientos","nombre":"AREATZA","descripcion":"Hotel balneario situado en las faldas del Parque Natural del Gorbea, en la localidad de Areatza, ...","direccion":"Askatasun  50-BIS","localidad":"Montes y Valles vascos","telefono":"946572705","email":"reservas@hotelbalnearioareatza.com","web":"www.hotelbalnearioareatza.com","capacidad":123,"latitud":43.123764,"longitud":-2.7740145},{"idAloj":0,"tipo":"Alojamientos","nombre":"ARBE","descripcion":"Situado sobre la Bahía de Arbe, este moderno hotel de diseño vanguardista tiene una orientación q...","direccion":"Laranga Auzoa 5-B","localidad":"Costa Vasca","telefono":"943 604 749","email":"info@hotelarbe.com","web":" ","capacidad":21,"latitud":43.304287,"longitud":-2.3643887},{"idAloj":0,"tipo":"Alojamientos","nombre":"ARABA 2","descripcion":"Pensión de dos estrellas ubicada en la capital alavesa. Ofrece cuatro habitaciones provistas de b...","direccion":"La Florida  25","localidad":"Vitoria-Gasteiz","telefono":"945232588","email":"info@pensionaraba.com","web":"http://www.pensionaraba.com","capacidad":8,"latitud":42.84308,"longitud":-2.6715493},{"idAloj":0,"tipo":"Alojamientos","nombre":"ARIES","descripcion":"La pensión Aries se encuentra en la Parte Vieja de la ciudad, junto al puerto. Su ubicación permi...","direccion":"San Jerónimo  22","localidad":"San Sebastián","telefono":"943426855","email":"pensionaries@pensionaries.com","web":"www.pensionaries.com","capacidad":8,"latitud":43.323963,"longitud":-1.9856681},{"idAloj":0,"tipo":"Alojamientos","nombre":"ARIAS","descripcion":"Este alojamiento goza de una céntrica ubicación en Bilbao, a 5 minutos a pie de la estación de tr...","direccion":"Pablo de Alzola  13","localidad":"Bilbao","telefono":"944650271","email":"f.garcia@checkinhm.com","web":" ","capacidad":21,"latitud":43.256405,"longitud":-2.9461348},{"idAloj":0,"tipo":"Alojamientos","nombre":"ARETXARTE","descripcion":"Hotel ubicado en el Parque Tecnológico de Bizkaia, en Zamudio, un lugar tranquilo y rodeado de zo...","direccion":"Parque Tecnológico  200","localidad":"Montes y Valles vascos","telefono":"944036900","email":"hotel@aretxarte.com  info@aretxarte.com","web":"www.hotelaretxarte.com","capacidad":50,"latitud":43.288868,"longitud":-2.860105},{"idAloj":0,"tipo":"Alojamientos","nombre":"ARENAL","descripcion":"Hotel de tres estrellas ubicado en el casco histórico de la capital vizcaína. Dispone de 36 habit...","direccion":"Fueros  2","localidad":"Bilbao","telefono":"944151407","email":"direccion@sercotelarenalbilbao.com","web":"http://www.hotelarenalbilbao.com","capacidad":58,"latitud":43.25964,"longitud":-2.9232926},{"idAloj":0,"tipo":"Alojamientos","nombre":"ARIZ","descripcion":"Pensión de dos estrellas situada en Basauri, dispone de 5 habitaciones dobles y dos individuales ...","direccion":"Galizia  5","localidad":"Bilbao","telefono":"944 260 609","email":"info@hostalariz.com","web":"http://hostalariz.com/","capacidad":12,"latitud":43.23548,"longitud":-2.88229},{"idAloj":0,"tipo":"Alojamientos","nombre":"ARISTIZABAL","descripcion":"Situada en el área romántica de la ciudad justo detrás de la Catedral del Buen Pastor su ubicació...","direccion":"Alfonso VIII  6","localidad":"San Sebastián","telefono":"943 421 323","email":"consultas@pensionaristizabal.com","web":"http://www.pensionaristizabal.com/es/","capacidad":6,"latitud":43.31727,"longitud":-1.9806538},{"idAloj":0,"tipo":"Alojamientos","nombre":"ARIMUNE","descripcion":"La pensión Arimune, situada en el paseo marítimo de Bakio, es una casona colonial construida a pr...","direccion":"Bentako Plaza 1","localidad":"Costa Vasca","telefono":"946194022","email":"h.arimune@gmail.com","web":"www.arimune.es","capacidad":24,"latitud":43.41542,"longitud":-2.8107996},{"idAloj":0,"tipo":"Alojamientos","nombre":"ARIMA HOTEL","descripcion":"Arima Hotel está situado en pleno Bosque Miramón, San Sebastián, cerca del c...","direccion":"Paseo de Miramón, 162","localidad":"San Sebastián","telefono":"943569136","email":"nimaz@sensosansebastian.com","web":"http://arimahotel.com/es/","capacidad":132,"latitud":43.291065,"longitud":-1.9810841},{"idAloj":0,"tipo":"Alojamientos","nombre":"ARRIAGA","descripcion":"Céntrico hotel ubicado junto al famoso Teatro Arriaga del que toma su nombre. Se trata de un mode...","direccion":"Ribera  2","localidad":"Bilbao","telefono":"944790001","email":"info@hotelarriaga.es","web":"www.hotelarriaga.es","capacidad":41,"latitud":43.259174,"longitud":-2.925123},{"idAloj":0,"tipo":"Alojamientos","nombre":"ARRIAGA, S","descripcion":"Arriaga Suites es un alojamiento situado en el emblemático Casco Viejo bilbaíno, muy próximo al t...","direccion":"Bidebarrieta  3","localidad":"Bilbao","telefono":"635707247","email":"info@arriagasuites.com","web":"www.arriagasuite.com","capacidad":11,"latitud":43.258823,"longitud":-2.9244895},{"idAloj":0,"tipo":"Alojamientos","nombre":"ARRIGORRI","descripcion":"En un paraje excepcional, el alojamiento está situado en Ondarroa, sobre la bahía que conforman l...","direccion":"Arrigorri  3","localidad":"Costa Vasca","telefono":"946830047","email":"arrigorriostatua@gmail.com","web":"http://www.arrigorri.eus","capacidad":36,"latitud":43.32208,"longitud":-2.418236},{"idAloj":0,"tipo":"Alojamientos","nombre":"ARRIZUL","descripcion":"Situado frente al Palacio de Congresos del Kursaal, en primera línea de playa, el hotel se encuen...","direccion":"Peña y Goñi  1","localidad":"San Sebastián","telefono":"943 322 804","email":"info@arrizulhotel.com","web":"http://www.arrizulhotel.com/","capacidad":23,"latitud":43.32394,"longitud":-1.9780256},{"idAloj":0,"tipo":"Alojamientos","nombre":"ARMIÑE","descripcion":"Hotel de tres estrellas situado en el municipio de Basauri, muy cerca de Bilbao. Dispone de 21 ha...","direccion":"Ibaigane  4-B","localidad":"Bilbao","telefono":"944262960","email":"info@hotelarmine.com","web":"www.hotelarmine.com","capacidad":46,"latitud":43.235294,"longitud":-2.8851302},{"idAloj":0,"tipo":"Alojamientos","nombre":"ARRARTE","descripcion":"Alojamiento situado en el centro de la villa costera de Plentzia. Dispone de habitaciones dobles ...","direccion":"Erribera 27","localidad":"Costa Vasca","telefono":"946771444","email":"info@alojamientoarrarte.com","web":"www.alojamientoarrarte.com","capacidad":16,"latitud":43.403984,"longitud":-2.9492178},{"idAloj":0,"tipo":"Alojamientos","nombre":"ARRASATE","descripcion":"Hotel situado en el centro de Arrasate/Mondragón, en una localidad con todos los servicios y rode...","direccion":"Biteri etorbidea 1","localidad":"Montes y Valles vascos","telefono":"943 797 322","email":"hotel@hotelarrasate.com","web":"http://www.hotelarrasate.com","capacidad":22,"latitud":43.066044,"longitud":-2.4886255},{"idAloj":0,"tipo":"Alojamientos","nombre":"ARRESI","descripcion":"El Hotel Arresi está asentado en una colina junto al puerto pesquero de Armintza, desde la que se...","direccion":"Portugane  7","localidad":"Costa Vasca","telefono":"946 879 208","email":"hotelarresi@hotelarresi.com","web":"http://www.hotelarresi.com","capacidad":19,"latitud":43.430614,"longitud":-2.8999},{"idAloj":0,"tipo":"Alojamientos","nombre":"ART 7","descripcion":"Los apartamentos Art7 se ubican en el barrio de Amara, en un primer y segundo piso de un edificio...","direccion":"Sancho el Sabio Etorbidea 28","localidad":"Costa Vasca,San Sebastián","telefono":"943 445 000","email":"sales@art7theapartment.com","web":"http://art7theapartment.com/","capacidad":24,"latitud":43.308273,"longitud":-1.9798622},{"idAloj":0,"tipo":"Alojamientos","nombre":"ARTAZA","descripcion":"Hotel ubicado en Neguri, en una villa con jardín construída en 1952 por el arquitecto municipal J...","direccion":"Los Chopos  12","localidad":"Costa Vasca,Bilbao","telefono":"944 912 852","email":"hotelartaza@hotelartaza.com","web":"http://www.hotelartaza.com","capacidad":23,"latitud":43.33652,"longitud":-3.002561},{"idAloj":0,"tipo":"Alojamientos","nombre":"ARTEA","descripcion":"Pensión situada en el centro de Donostia-San Sebastián, a 50 metros de la playa de La Concha. Dis...","direccion":"San Bartolome 33","localidad":"Costa Vasca,San Sebastián","telefono":"943 455 100","email":"info@pensionartea.com","web":"http://www.pensionartea.com/home.html","capacidad":14,"latitud":43.31492,"longitud":-1.9874771},{"idAloj":0,"tipo":"Alojamientos","nombre":"ARTEA ERROTA","descripcion":"Hotel ubicado en un molino de 1772 del municipio de Zamudio. Dispone de 12 habitaciones dobles y ...","direccion":"Arteaga Auzunea 63","localidad":"Montes y Valles vascos","telefono":"944 523 457","email":"arteaerrota@gmail.com","web":" ","capacidad":25,"latitud":43.285835,"longitud":-2.8635962},{"idAloj":0,"tipo":"Alojamientos","nombre":"ARRIZUL CONGRESS","descripcion":"El Hotel Arrizul Congress es un hotel de lujo situado en el barrio de Gros en San Sebastiá...","direccion":"Ronda Kalea, Nº 3","localidad":"San Sebastián","telefono":"943327026","email":"info@hotelarrizulcongress.com","web":"http://www.hotelarrizulcongress.com/","capacidad":87,"latitud":43.321907,"longitud":-1.9766876},{"idAloj":0,"tipo":"Alojamientos","nombre":"ARRIZUL URUMEA","descripcion":"Situado en San Sebastian, en la orilla del río Urumea, junto a uno de sus puentes, este hotel ina...","direccion":"Kale Zaharra  19","localidad":"San Sebastián","telefono":"943 265 522","email":"info@hotelarrizulurumea.com","web":"http://www.hotelarrizulurumea.com","capacidad":45,"latitud":43.30855,"longitud":-1.9762436},{"idAloj":0,"tipo":"Alojamientos","nombre":"ARROBI OSTATUA","descripcion":"La pensión Arrobi Ostatua está situada en Hernani, a menos de 20 minutos de San Sebastián, en una...","direccion":"Santa Barbara Bailara 87","localidad":"Montes y Valles vascos","telefono":"943337211","email":"info@arrobiostatua.com","web":"www.arrobiostatua.com","capacidad":22,"latitud":43.27071,"longitud":-1.973242},{"idAloj":0,"tipo":"Alojamientos","nombre":"ARRUPE/LOYOLA","descripcion":"A los pies del monte Izarraitz, en la misma explanada del Santuario de Loyola, a escasos 100 metr...","direccion":"Loiola Auzoa 8","localidad":"Montes y Valles vascos","telefono":"943 025 026","email":"hotelarrupe@sjloyola.org","web":"http://www.hotelarrupe.org","capacidad":64,"latitud":43.17385,"longitud":-2.281314},{"idAloj":0,"tipo":"Alojamientos","nombre":"AS HOTEL EXPRESS ALTUBE","descripcion":"Se trata de un hotel de dos estrellas situado en un área de servicio, dirección Vitoria-Gasteiz, ...","direccion":"Area Servicio A-68, 4","localidad":"Montes y Valles vascos","telefono":"945430173","email":"altube@areasmail.com","web":"www.ashoteles.es","capacidad":27,"latitud":42.96677,"longitud":-2.8695345},{"idAloj":0,"tipo":"Alojamientos","nombre":"ARTXANDA","descripcion":"Hotel ubicado en Artxanda, sobre la capital vizcaina, rodeado de monte y de fácil acceso a Bilbao...","direccion":"Carretera Artxanda-Santo Domingo 3","localidad":"Bilbao","telefono":"944132286","email":" ","web":"http://www.hotelartxanda.com","capacidad":18,"latitud":43.269615,"longitud":-2.9073775},{"idAloj":0,"tipo":"Alojamientos","nombre":"ASTORIA7","descripcion":"Comunicado con el centro de la ciudad de San Sebastián por una avenida y situado en un edificio e...","direccion":"Sagrada Familia  1","localidad":"Costa Vasca,San Sebastián","telefono":"943 445 000","email":"info@astoria7hotel.com","web":"http://www.astoria7hotel.com/","capacidad":194,"latitud":43.308437,"longitud":-1.9799865},{"idAloj":0,"tipo":"Alojamientos","nombre":"ASTIGARRAGA","descripcion":"Situada en Astigarraga, cuna de la sidra, la pensión cuenta con habitaciones y apartamentos con v...","direccion":"Oialume Bidea 28","localidad":"Montes y Valles vascos","telefono":"943 311 600","email":"pensionastigarraga@yahoo.es","web":" ","capacidad":34,"latitud":43.27406,"longitud":-1.9540569},{"idAloj":0,"tipo":"Alojamientos","nombre":"ARTETXE","descripcion":"Hotel familiar ubicado en un entorno rural, en el monte Artxanda, a 2 kilómetros de Bilbao. Desde...","direccion":"Enekuri-Artxanda Errepidea 7","localidad":"Bilbao","telefono":"944 747 780","email":"info@hotelartetxe.com","web":"http://www.hotelartetxe.com","capacidad":19,"latitud":43.27912,"longitud":-2.946202},{"idAloj":0,"tipo":"Alojamientos","nombre":"ARTEA NARRICA","descripcion":"La Pensión Narrika se encuentra ubicada en la calle del mismo nombre en la parte vieja de la ciud...","direccion":"Narrica  3","localidad":"San Sebastián","telefono":"943 455 100","email":"info@pensionartea.com","web":"http://www.pensionarteanarrika.com/","capacidad":11,"latitud":43.32271,"longitud":-1.9839956},{"idAloj":0,"tipo":"Alojamientos","nombre":"ARTIÑANO ETXEA","descripcion":"Artiñano Etxea es un caserío convertido en alojamiento rústico, situado en el Valle de Orozko (a ...","direccion":"Beraza Auzoa 4","localidad":"Montes y Valles vascos","telefono":"675702320","email":"info@artinanoetxea.com","web":"http://artinanoetxea.com/","capacidad":13,"latitud":43.10861,"longitud":-2.9110725},{"idAloj":0,"tipo":"Alojamientos","nombre":"ARTETXE","descripcion":"Pensión de dos estrellas ubicada en un bonito caserío, a 2 kilómetros de Bilbao, en una zona rura...","direccion":"Berrizbidea 95","localidad":"Bilbao","telefono":"944747780","email":"info@hotelartetxe.com","web":"www.hotelartetxe.com","capacidad":16,"latitud":43.278847,"longitud":-2.9465673},{"idAloj":0,"tipo":"Alojamientos","nombre":"ATXIKI","descripcion":"La Pensión Atxiki se encuentra al pie del monte Ulía, a menos de 100 metros de la playa de la Zur...","direccion":"Zemoriya 11","localidad":"San Sebastián","telefono":"943 271 042","email":"atxiki8@gmail.com","web":"http://www.pension-atxiki.es/","capacidad":5,"latitud":43.32676,"longitud":-1.9703537},{"idAloj":0,"tipo":"Alojamientos","nombre":"ATXEGA JAUREGIA","descripcion":"El Palacio Atxega, monumento histórico de Usurbil, acoge este hotel que cuenta con 12 habitacione...","direccion":"Aitzezarra 1","localidad":"Montes y Valles vascos","telefono":"943 376 666","email":"reservas@hotelatxega.com","web":"http://www.hotelatxega.com","capacidad":23,"latitud":43.271126,"longitud":-2.0539427},{"idAloj":0,"tipo":"Alojamientos","nombre":"AUSSIE","descripcion":"Este alojamiento está en el centro de la Parte Vieja de San Sebastián, lo que permite acceder a p...","direccion":"San Jerónimo  23","localidad":"San Sebastián","telefono":"943 422 874","email":" ","web":"http://www.pensionaussie.com/","capacidad":12,"latitud":43.32369,"longitud":-1.9856468},{"idAloj":0,"tipo":"Alojamientos","nombre":"ATXURRA","descripcion":"El hotel Atxurra es un alojamiento ecológico que cuenta con la Etiqueta Ecológica Europea. Se enc...","direccion":"Arranotegi Auzoa 14","localidad":"Costa Vasca","telefono":"944 654 404","email":"info@hotelatxurra.com","web":"http://www.hotelatxurra.com","capacidad":39,"latitud":43.389133,"longitud":-2.760479},{"idAloj":0,"tipo":"Alojamientos","nombre":"ATALAYA","descripcion":"Hotel de dos estrellas que ocupa un singular edificio de estilo inglés construído a principios de...","direccion":"Itxaropen 1","localidad":"Costa Vasca","telefono":"946 177 000","email":"reservas@atalayahotel.es","web":"http://www.atalayahotel.es","capacidad":21,"latitud":43.406975,"longitud":-2.697864},{"idAloj":0,"tipo":"Alojamientos","nombre":"ATALAIA","descripcion":"Hotel ubicado en un amplio y espacioso edificio de arquitectura tradicional en el municipio front...","direccion":"Ventas Auzoa 69-B","localidad":"Montes y Valles vascos","telefono":"943 629 433","email":"info@hotelatalaia.com","web":"http://www.hotelatalaia.com","capacidad":55,"latitud":43.322517,"longitud":-1.8331994},{"idAloj":0,"tipo":"Alojamientos","nombre":"ATOTXA ROOMS","descripcion":"Atotxa Rooms es una moderna pensión creada con el ánimo de que las personas que vis...","direccion":"Duque de Mandas 44","localidad":"San Sebastián","telefono":"943229733","email":"info@atotxarooms.com","web":"https://www.atotxarooms.com/","capacidad":13,"latitud":43.317574,"longitud":-1.975989},{"idAloj":0,"tipo":"Alojamientos","nombre":"ATERIAN","descripcion":"Es un proyecto que abarca varios 2 espacios: -Pelaio-etxea es un apartamento de 4 plazas ubic...","direccion":"Eitzaga Auzoa 15","localidad":"Costa Vasca","telefono":"638 738 114","email":"info@aterian.eus","web":"http://www.aterian.eus","capacidad":14,"latitud":43.289898,"longitud":-2.1923513},{"idAloj":0,"tipo":"Alojamientos","nombre":"Apartamentos Dada","descripcion":"Modernos apartamentos ubicados a pie de playa, en la villa costera de Zarautz. El arenal abierto ...","direccion":"Balea Kalea,  4","localidad":"Costa Vasca","telefono":"688723841","email":"apartametnosturisticosdada@gmail.com","web":"http://www.apartamentosdada.com","capacidad":10,"latitud":0.0,"longitud":0.0},{"idAloj":0,"tipo":"Alojamientos","nombre":"Apartamentos Florida 30","descripcion":"A tan solo 15 minutos en coche de la playa de La Concha de San Sebastián, estos apartamentos se h...","direccion":"Florida Auzoa/Barrio, Nº 30","localidad":"Montes y Valles vascos","telefono":"943358703","email":" ","web":"www.florida30.es","capacidad":34,"latitud":43.269947,"longitud":-1.9719238},{"idAloj":0,"tipo":"Alojamientos","nombre":"AZALA","descripcion":"Azala es un alojamiento rural situado en el pueblo de Lasierra, en Ribera Alta, a cuatro kilómetr...","direccion":"Lasierra 14","localidad":"Montes y Valles vascos","telefono":"657700739","email":"azalaespacio@gmail.com","web":"http://www.azala.es","capacidad":24,"latitud":42.796097,"longitud":-2.8748977},{"idAloj":0,"tipo":"Alojamientos","nombre":"AZKUE","descripcion":"Hotel situado en los montes que circundan la villa marinera de Getaria, y a resguardo de los vien...","direccion":"Meaga Auzoa 2","localidad":"Costa Vasca","telefono":"943 830 554","email":"info@hotelazkue.com","web":"http://www.hotelazkue.com","capacidad":36,"latitud":43.282078,"longitud":-2.209797},{"idAloj":0,"tipo":"Alojamientos","nombre":"AVENIDA EUSKADI","descripcion":"Desde la pensión Avenida Euskadi se puede llegar a pie a la Feria de Bilbao (Bilbao Exhibi...","direccion":"Avenida Euskadi, 24","localidad":"Bilbao","telefono":"944900523","email":"pensionaveuskadi@hotmail.com","web":"http://www.pensionavenidaeuskadi.com/","capacidad":11,"latitud":43.292675,"longitud":-2.991157},{"idAloj":0,"tipo":"Alojamientos","nombre":"AYALA","descripcion":"Esta pensión está situado en el centro de Amurrio, junto a un parque y a 5 minutos a pie de la es...","direccion":"Aiara 2","localidad":"Montes y Valles vascos","telefono":"945890452","email":"ayalahostal@gmail.com","web":" ","capacidad":21,"latitud":43.051678,"longitud":-3.0021853},{"idAloj":0,"tipo":"Alojamientos","nombre":"AUSSIE II","descripcion":"Se encuentra situada en el tranquilo barrio de Amara, a 20 minutos a pie de la playa y muy cerca ...","direccion":"Elgoibar 10","localidad":"San Sebastián","telefono":"943446759","email":"casabasque@hotmail.com","web":"www.pensionaussie.com","capacidad":11,"latitud":43.295815,"longitud":-1.9657067},{"idAloj":0,"tipo":"Alojamientos","nombre":"AVENIDA","descripcion":"El Hotel Avenida está situado en San Sebastián, cerca de la playa de Ondarreta. Desde sus ventana...","direccion":"Igeldo  55","localidad":"Costa Vasca,San Sebastián","telefono":"943 212 022","email":"avenida@hotelavenida.net","web":"http://www.hotelavenida.net","capacidad":99,"latitud":43.31293,"longitud":-2.0109816},{"idAloj":0,"tipo":"Alojamientos","nombre":"BALERDI","descripcion":"La Pensión Balerdi está situada en la entrada de la Parte Vieja donostiarra lo que permite llegar...","direccion":"San Juan 14","localidad":"San Sebastián","telefono":"943 426 814","email":"ibargoien@hotmail.com","web":"http://www.pensionbalerdi.com","capacidad":9,"latitud":43.323105,"longitud":-1.9831364},{"idAloj":0,"tipo":"Alojamientos","nombre":"BALNEARIO ORDUÑA PLAZA","descripcion":"El Hotel Balneario Orduña Plaza está situado en pleno centro de Orduña, en un edificio de constru...","direccion":"Foru Plaza, Nº 15","localidad":"Montes y Valles vascos","telefono":" ","email":" ","web":"www.hotelordunaplaza.com","capacidad":74,"latitud":42.994743,"longitud":-3.0101588},{"idAloj":0,"tipo":"Alojamientos","nombre":"BAKIOLA","descripcion":"El establecimiento está situado en el polígono industrial Bakiola y, además de alojamiento, dispo...","direccion":"Bakiola Auzoa 7","localidad":"Montes y Valles vascos","telefono":"946 481 917","email":"bakiola_04@hotmail.com","web":"http://restaurantebakiola.blogspot.com.es/","capacidad":9,"latitud":43.179234,"longitud":-2.9134896},{"idAloj":0,"tipo":"Alojamientos","nombre":"BALENTIÑA","descripcion":"Pensión de dos estrellas situada en el municipio de Zumarraga que dispone de 11 habitaciones prov...","direccion":"Urola  8","localidad":"Montes y Valles vascos","telefono":"943 725 041","email":"balentinapensioa@gmail.com","web":"http://www.pension-balentina.com","capacidad":14,"latitud":43.088665,"longitud":-2.3193078},{"idAloj":0,"tipo":"Alojamientos","nombre":"BABES","descripcion":"Pensión ubicada en el municipio de Urnieta, a tan sólo 12 kilómetros de San Sebastián. Todas sus ...","direccion":"Idiazabal  6","localidad":"Montes y Valles vascos","telefono":"663270830","email":" ","web":"http://www.pensionbabes.com","capacidad":14,"latitud":43.250805,"longitud":-1.9905083},{"idAloj":0,"tipo":"Alojamientos","nombre":"BAHIA","descripcion":"La pensión Bahía, ubicada cerca de la playa de La Concha, fue renovada totalmente en el año 2008....","direccion":"San Martín  54-BIS","localidad":"San Sebastián,Costa Vasca","telefono":"943 469 211","email":"bahia@hostalbahia.com","web":"http://www.hostalbahia.com","capacidad":72,"latitud":43.31619,"longitud":-1.9856088},{"idAloj":0,"tipo":"Alojamientos","nombre":"B\u0026amp;B DONOSTIA SAN SEBASTIAN AEROPUERTO","descripcion":"Hotel situado en una zona muy tranquila, a 11 kilómetros de Donostia-San Sebastián y cerca de la ...","direccion":"Lintzirin Poligonoa 7","localidad":"Montes y Valles vascos","telefono":"943912451","email":"nuria.mugica@hotelbb.com","web":"www.sidorme.com","capacidad":258,"latitud":43.31308,"longitud":-1.8781581},{"idAloj":0,"tipo":"Alojamientos","nombre":"B\u0026amp;B ISABELLA","descripcion":"Alojamiento situado a 50 metros de la playa de Ondarreta, junto al Palacio de Miramar y El Peine ...","direccion":"Ondarbide  1","localidad":"Costa Vasca,San Sebastián","telefono":"943218324","email":"info@roomsisabella.com","web":"http://www.roomsisabella.com","capacidad":7,"latitud":43.31386,"longitud":-2.0026376},{"idAloj":0,"tipo":"Alojamientos","nombre":"BASIC CONFORT 2","descripcion":"Pensión situada en el centro de Donostia-San Sebastián, en la parte vieja, una zona peatonal llen...","direccion":"San Lorenzo 12","localidad":"Costa Vasca,San Sebastián","telefono":"943 430 132","email":"pilielorza@hotmail.com","web":"http://www.basicconfort.com","capacidad":5,"latitud":43.323112,"longitud":-1.9839163},{"idAloj":0,"tipo":"Alojamientos","nombre":"BASAGOITI","descripcion":"La pensión Basagoiti está ubicada en el corazón de la localidad de Getxo, muy cerca de la plaza d...","direccion":"Basagoiti Etorbidea 72","localidad":"Costa Vasca","telefono":"608577446","email":"info@pensionbasagoiti.es","web":"http://www.pensionbasagoiti.es/","capacidad":9,"latitud":43.352203,"longitud":-3.013723},{"idAloj":0,"tipo":"Alojamientos","nombre":"BARRACHI","descripcion":"Hotel situado en el Polígono Industrial Gamarra, en la circunvalación de Vitoria-Gasteiz, una zon...","direccion":"Barratxi  6","localidad":"Vitoria-Gasteiz","telefono":"945273200","email":"hotelbarrachi@gmail.com","web":"http://www.hotelbarrachi.es","capacidad":19,"latitud":42.87131,"longitud":-2.6542423},{"idAloj":0,"tipo":"Alojamientos","nombre":"BARLOVENTO","descripcion":"Pensión totalmente restaurada con habitaciones con baño en el interior o con baño compartido. Dis...","direccion":"Capitán Mendizabal 15","localidad":"Costa Vasca","telefono":"944 612 084","email":" ","web":" ","capacidad":17,"latitud":43.331097,"longitud":-3.0339103},{"idAloj":0,"tipo":"Alojamientos","nombre":"BARCELO COSTA VASCA","descripcion":"Hotel de cuatro estrellas situado en la zona residencial de Ondarreta, cerca de la playa del mism...","direccion":"Pio Baroja Ibilbidea  15","localidad":"Costa Vasca,San Sebastián","telefono":"943 317 950","email":"costavasca@barcelo.com","web":"http://www.barcelocostavasca.com","capacidad":367,"latitud":43.311584,"longitud":-1.9952153},{"idAloj":0,"tipo":"Alojamientos","nombre":"BARCELO BILBAO NERVION","descripcion":"El hotel Barceló Bilbao Nervión**** ha reabierto sus puertas tras llevar a cabo unas profundas re...","direccion":"Campo Volantín11","localidad":"Bilbao","telefono":"944 454 700","email":"bilbaonervion@barcelo.com","web":"http://www.barcelonervion.com","capacidad":658,"latitud":43.265118,"longitud":-2.9250786},{"idAloj":0,"tipo":"Alojamientos","nombre":"BARAZAR","descripcion":"Alojamiento ubicado en Zeanuri, en el interior de Bizkaia, en un entorno rural con un gran valor ...","direccion":"Altzusta Auzoa z.g.","localidad":"Montes y Valles vascos","telefono":"946 739 564","email":" ","web":" ","capacidad":22,"latitud":43.09258,"longitud":-2.7403488},{"idAloj":0,"tipo":"Alojamientos","nombre":"BAPS","descripcion":"Estos apartamentos de diseño con capacidad para 1 - 4 personas están ubicados junto a la ría de B...","direccion":"Hernani 9","localidad":"Bilbao","telefono":"607934416","email":"sllamas@eitec.es","web":"www.baps.com.es","capacidad":25,"latitud":43.256775,"longitud":-2.9283776},{"idAloj":0,"tipo":"Alojamientos","nombre":"BENTA ALDEA","descripcion":"Situada en el corazón de Tolosaldea, la Pensión Benta Aldea dispone de 5 habitaciones con baño, t...","direccion":"Industrialdea poligonoa 38","localidad":"Montes y Valles vascos","telefono":"943 654 079","email":"info@bentaldea.com","web":"http://www.bentaldea.com","capacidad":7,"latitud":43.15413,"longitud":-2.0748625},{"idAloj":0,"tipo":"Alojamientos","nombre":"BEKO ERROTA","descripcion":"Cerca de los municipios de Zumarraga y Beasain, muy cerca del parque Natural de Aizkorri-Aratz, s...","direccion":"Ugarana Bekoa Auzoa 2","localidad":"Montes y Valles vascos","telefono":"639238889","email":"info@itxune.com","web":" ","capacidad":38,"latitud":43.03876,"longitud":-2.27324},{"idAloj":0,"tipo":"Alojamientos","nombre":"BEKALE","descripcion":"La pensión Bekale está ubicada en pleno centro urbano de Ea, pequeña y acogedora localidad coster...","direccion":"Kalebarria  2","localidad":"Costa Vasca","telefono":"946275902","email":"bekale@gmail.com","web":"www.bekalepentsioa.com","capacidad":11,"latitud":43.380867,"longitud":-2.584516},{"idAloj":0,"tipo":"Alojamientos","nombre":"BEIZAMA","descripcion":"Pensión de 2 estrellas ubicada en el barrio Ergobia de Astigarraga, próximo al núcleo urbano y a ...","direccion":"Tranbia Ibilbidea, 12","localidad":"Montes y Valles vascos,San Sebastián","telefono":"943 550 042","email":"info@beizamapension.com","web":"http://www.pensionbeizama.com","capacidad":14,"latitud":43.276535,"longitud":-1.9548093},{"idAloj":0,"tipo":"Alojamientos","nombre":"BEGOÑA","descripcion":"Pensión fundada en 1920 y completamente remodelada en 2002. Está ubicada en el corazón de Bilbao,...","direccion":"Amistad  2","localidad":"Bilbao","telefono":"944230134","email":"info@actioturis.com","web":"www.actioturis.com","capacidad":27,"latitud":43.261147,"longitud":-2.9257367},{"idAloj":0,"tipo":"Alojamientos","nombre":"BEDIA","descripcion":"Este alojamiento con capacidad para 8 personas está situado en Bedia. En sus alrededores puedes...","direccion":"Murtatza Auzoa 80","localidad":"Montes y Valles vascos","telefono":"651 700 759","email":" ","web":" ","capacidad":8,"latitud":43.21747,"longitud":-2.8053703},{"idAloj":0,"tipo":"Alojamientos","nombre":"BEACH BREAK","descripcion":"Alojamiento situado muy cerca de la Parte Vieja de San Sebastián, a tan sólo 200 metros de la Pla...","direccion":"Esterlines  10","localidad":"San Sebastián","telefono":"722289194","email":"beachbreakguesthouse@gmail.com","web":" ","capacidad":8,"latitud":43.322956,"longitud":-1.9847419},{"idAloj":0,"tipo":"Alojamientos","nombre":"BASQUE BOUTIQUE","descripcion":"El alojamiento Basque Boutique se encuentra en pleno Casco Viejo bilbaíno, a 150 metros de la Cat...","direccion":"La Torre  2","localidad":"Bilbao","telefono":"944790788","email":"info@basqueboutique.es","web":"http://www.basqueboutique.es","capacidad":15,"latitud":43.25751,"longitud":-2.9253433},{"idAloj":0,"tipo":"Alojamientos","nombre":"BILBAO","descripcion":"Pensión situada en el centro de Bilbao, en plena zona comercial y de negocios y con excelentes co...","direccion":"Amistad  2","localidad":"Bilbao","telefono":"944246943","email":"pensionbilbao@telefonica.net","web":"www.pensionbilbao.com","capacidad":15,"latitud":43.261063,"longitud":-2.9258628},{"idAloj":0,"tipo":"Alojamientos","nombre":"BIKAIN","descripcion":"Hotel de dos estrellas ubicado a 50 metros de la Playa de la Concha. Dispone de habitaciones dobl...","direccion":"Triunfo  8","localidad":"San Sebastián,Costa Vasca","telefono":"943 454 333","email":"reservas@pensionbikain.com","web":"http://www.pensionbikain.com","capacidad":12,"latitud":43.315773,"longitud":-1.9850122},{"idAloj":0,"tipo":"Alojamientos","nombre":"BILBAO CENTRIC APARTMENTS","descripcion":"Bilbao Centric Aparments se encuentra en el tranquilo y céntrico barrio del Ensanche-Moyua...","direccion":"C/Alameda Recalde 24, planta 3","localidad":"Bilbao","telefono":" ","email":"info@bilbaocentricapartments.com","web":"https://bilbaocentricapartments.com/","capacidad":15,"latitud":43.265007,"longitud":-2.934349},{"idAloj":0,"tipo":"Alojamientos","nombre":"BILBAO ART LODGE","descripcion":"Este original alojamiento dedica cada una de sus habitaciones a una disciplina artística: pintura...","direccion":"Calle Iturriza, Nº 3","localidad":"Bilbao","telefono":"946855951","email":"info@bilbaoartlodge.com","web":"www.bilbaoartlodge.com","capacidad":11,"latitud":0.0,"longitud":0.0},{"idAloj":0,"tipo":"Alojamientos","nombre":"BILBAO JARDINES","descripcion":"Este hotel nuevo, de diseño innovador, goza de una ubicación ideal para explorar la ciudad a pie ...","direccion":"Jardines  9","localidad":"Bilbao","telefono":"944 794 210","email":"info@hotelbilbaojardines.com","web":"http://www.hotelbilbaojardines.com","capacidad":59,"latitud":43.258343,"longitud":-2.9248407},{"idAloj":0,"tipo":"Alojamientos","nombre":"BILBAO CITY ROOMS","descripcion":"Ubicado en el centro de ciudad, a tan solo 50 metros del Museo Guggeheim, permite recorrer a pie ...","direccion":"Alameda Recalde 24","localidad":"Bilbao","telefono":"944256050","email":"reservas@bilbaocityrooms.com","web":"www.bilbaocityrooms.com","capacidad":36,"latitud":43.265,"longitud":-2.9342554},{"idAloj":0,"tipo":"Alojamientos","nombre":"BILBI","descripcion":"Hotel de dos estrellas ubicado en el nuevo barrio de Miribilla. Dispone de 41 habitaciones dobles...","direccion":"Miribilla  8","localidad":"Bilbao","telefono":"944 152 811","email":"hotelbilbi@hotelbilbi.com","web":"http://www.hotelbilbi.com","capacidad":78,"latitud":43.25473,"longitud":-2.9259355},{"idAloj":0,"tipo":"Alojamientos","nombre":"BILBAO MUSEUMS APARTMENTS","descripcion":"Los Bilbao Museums Apartments están muy bien situados en la Ruta de los Museos a pocos metros and...","direccion":"Lersundi Kalea/Calle, Nº 18 1º","localidad":"Bilbao","telefono":" ","email":"info@bma.eus","web":"www.bma.eus","capacidad":26,"latitud":43.26716,"longitud":-2.9335735},{"idAloj":0,"tipo":"Alojamientos","nombre":"BERGARA","descripcion":"Es un alojamiento sencillo, confortable y de ambiente familiar situado en el centro monumental e ...","direccion":"Bidekurutzeta  34","localidad":"Montes y Valles vascos","telefono":"943 764 723","email":" ","web":" ","capacidad":26,"latitud":43.115513,"longitud":-2.4139898},{"idAloj":0,"tipo":"Alojamientos","nombre":"BERBEA","descripcion":"Los apartamentos rurales Berbea, inaugurados en 2014 están compuestos por 4 apartamentos, 3 de 4 ...","direccion":"Iorrabido 4","localidad":"Montes y Valles vascos,Vitoria-Gasteiz","telefono":" ","email":"apartamentosberbea@hotmail.com","web":"www.berbea.com","capacidad":15,"latitud":42.80815,"longitud":-3.088568},{"idAloj":0,"tipo":"Alojamientos","nombre":"BERRI-VERSALLES","descripcion":"El Hotel Restaurante Berri Versalles, en Errenteria, cuenta con todos los servicios necesarios pa...","direccion":"Alto de Capuchinos  9","localidad":"Montes y Valles vascos","telefono":"943 512 045","email":"reservas@hotelberriversalles.com","web":"http://www.hotelberriversalles.com","capacidad":45,"latitud":43.318314,"longitud":-1.9069996},{"idAloj":0,"tipo":"Alojamientos","nombre":"BERGARETXE GELTOKIA","descripcion":"Bergaretxe Geltokia es una casa rural situada en la localidad de Legazpia, en el coraz\u0026amp;oacut...","direccion":"Brinkola, 8","localidad":"Montes y Valles vascos","telefono":"943559721","email":"info@apartamentosbergaretxe.eus","web":"https://apartamentosbergaretxe.eus/","capacidad":11,"latitud":43.024002,"longitud":-2.3336601},{"idAloj":0,"tipo":"Alojamientos","nombre":"BIAZTERI","descripcion":"Este alojamiento se encuentra en el caso histórico de la villa medieval de Laguardia, en plena ca...","direccion":"Berberana 2","localidad":"Rioja Alavesa","telefono":"945600026","email":"reservas@biazteri.com","web":" ","capacidad":17,"latitud":42.552574,"longitud":-2.5848315},{"idAloj":0,"tipo":"Alojamientos","nombre":"BERRITXU","descripcion":"Alojamiento de dos estrellas ubicado en el pequeño municipio de Berriatua. Dispone de cinco habit...","direccion":"Aransolo  6","localidad":"Costa Vasca","telefono":"635733799","email":"pensionberritxu@gmail.com","web":" ","capacidad":9,"latitud":43.30906,"longitud":-2.4673083},{"idAloj":0,"tipo":"Alojamientos","nombre":"BIDE ONDO","descripcion":"La Pensión Bide-Ondo está ubicada en una zona rural cerca de Amorebieta, a 10 km del Parque Natur...","direccion":"Berna Auzoa 4","localidad":"Montes y Valles vascos","telefono":"946730561","email":"ouberuaga@yahoo.es","web":"www.bide-ondo.com","capacidad":11,"latitud":43.187035,"longitud":-2.6786177},{"idAloj":0,"tipo":"Alojamientos","nombre":"BIDASOA","descripcion":"Pensión de dos estrellas ubicado en Irun que dispone de habitaciones dobles e individuales provis...","direccion":"Estacion 14","localidad":"Montes y Valles vascos","telefono":"943619913","email":" ","web":" ","capacidad":28,"latitud":43.34102,"longitud":-1.7989428},{"idAloj":0,"tipo":"Alojamientos","nombre":"BRETXA","descripcion":"Situado en el corazón de la Parte Vieja de San Sebastián, la principal oferta turística se encuen...","direccion":"Fermin Calbeton Kalea/Calle, Nº 5.","localidad":"San Sebastián","telefono":"943430470","email":"info@hospedajebretxa.com","web":"http://www.hospedajebretxa.com","capacidad":6,"latitud":43.32351,"longitud":-1.9833771},{"idAloj":0,"tipo":"Alojamientos","nombre":"BUENA VISTA","descripcion":"Se trata de una casa de piedra ubicado en el barrio donostiarra de Igeldo. La pensión tiene 2 est...","direccion":"Cristóbal Balenciaga 42","localidad":"Costa Vasca,San Sebastián","telefono":"943 210 600","email":"buenavista1971@telefonica.net","web":"http://www.pensionbuenavista.com","capacidad":18,"latitud":43.31619,"longitud":-2.0231895},{"idAloj":0,"tipo":"Alojamientos","nombre":"BUENA VISTA","descripcion":"La pensión Buena Vista es el alojamiento ideal para los peregrinos que recorriendo el Camino de S...","direccion":"San Juán Bautista  1","localidad":"Costa Vasca","telefono":"661885848","email":"pensionbuenavista@gmail.com","web":"http://pensionbuenavista.16mb.com/","capacidad":27,"latitud":43.32259,"longitud":-3.0253842},{"idAloj":0,"tipo":"Alojamientos","nombre":"BULE","descripcion":"Situada en el centro de la parte vieja de la ciudad, está rodeada de los bares de pintxos y resta...","direccion":"Sarriegi Plaza 1","localidad":"San Sebastián","telefono":"943 103 233","email":"info@pensionbule.com","web":"ww.pensionbule.com","capacidad":18,"latitud":43.322777,"longitud":-1.983468},{"idAloj":0,"tipo":"Alojamientos","nombre":"BURDI-KURUTZE","descripcion":"La pensión Burdi-Kurutze está situada en un entorno inigualable, en el puerto de Urkiola, rodeada...","direccion":"Urkiola Auzoa 6","localidad":"Montes y Valles vascos","telefono":"946 812 026","email":"burdi-kurutze@hotmail.com","web":"http://burdi-kurutze.com/","capacidad":5,"latitud":43.10098,"longitud":-2.6462064},{"idAloj":0,"tipo":"Alojamientos","nombre":"BURGALESA","descripcion":"Situada junto al Hospital de Cruces, este establecimiento se encuentra a 10 minutos a pie del BEC...","direccion":"Blas de Otero 4","localidad":"Montes y Valles vascos","telefono":"944 903 382","email":"pensionlaburgalesa@gmail.com","web":"http://www.pensionlaburgalesa.com/","capacidad":35,"latitud":43.284138,"longitud":-2.9828303},{"idAloj":0,"tipo":"Alojamientos","nombre":"C7","descripcion":"La Pensión C7 se encuentra a 150 metros del Palacio de Congresos Kursaal y de la playa de la Zurr...","direccion":"Colón Ibilbidea 7","localidad":"San Sebastián","telefono":"943 002 070","email":"info@c7sansebastian.com","web":"http://www.c7sansebastian.com/","capacidad":13,"latitud":43.322395,"longitud":-1.9774369},{"idAloj":0,"tipo":"Alojamientos","nombre":"CABAÑAS EN LOS ARBOLES","descripcion":"“Zuhaitz-etxeak\u0026quot; o Cabañas en los Árboles ofrece a los amantes de la nat...","direccion":"Altzusta auzoa 134003,\u0026lt;br/\u0026gt;","localidad":"Montes y Valles vascos","telefono":"675970072","email":" ","web":"http://cabanasenlosarboles.com","capacidad":22,"latitud":43.050587,"longitud":-2.695269},{"idAloj":0,"tipo":"Alojamientos","nombre":"BILBOROOMS","descripcion":"Céntrica pensión ubicada en un edificio clásico en pleno casco histórico de la ciudad, junto a la...","direccion":"Victor  3","localidad":"Bilbao","telefono":"944 793 591","email":"reservas@bilborooms.com","web":"http://www.bilborooms.com","capacidad":13,"latitud":43.258476,"longitud":-2.9241467},{"idAloj":0,"tipo":"Alojamientos","nombre":"BISTAEDER","descripcion":"El establecimiento está situado a 10 minutos a pie de la playa. Dispone de piscina al aire libre,...","direccion":"Domingotxoenea 32","localidad":"Costa Vasca","telefono":"634548027","email":"hotelbistaeder@gmail.com","web":" ","capacidad":11,"latitud":43.371387,"longitud":-1.8026818},{"idAloj":0,"tipo":"Alojamientos","nombre":"BIZKAIA","descripcion":"Alojamiento ubicado en Zeanuri, en el interior de Bizkaia, en un entorno rural con un gran valor ...","direccion":"Asterria Auzoa 28","localidad":"Montes y Valles vascos","telefono":"946 739 028","email":" ","web":" ","capacidad":11,"latitud":43.114986,"longitud":-2.7495403},{"idAloj":0,"tipo":"Alojamientos","nombre":"BLUE BILBAO BED \u0026amp; BREAKFAST","descripcion":"El Blue Bilbao Bed \u0026amp; Breakfast está situado en el Casco Viejo de la ciudad, muy cerca de la Cated...","direccion":"Banco España  3","localidad":" ","telefono":"638038747","email":"bluebilbao14@gmail.com","web":"www.bluebilbao.co","capacidad":17,"latitud":43.257896,"longitud":-2.9229965},{"idAloj":0,"tipo":"Alojamientos","nombre":"BOLIÑA","descripcion":"Hotel de una estrella ubicado en el municipio vizcaino de Gernika-Lumo. Dispone de 11 habitacione...","direccion":"Barrenkalea 3","localidad":"Montes y Valles vascos,Costa Vasca","telefono":"946 250 300","email":"recepcion@hotelbolina.net","web":"http://www.hotelbolina.net","capacidad":27,"latitud":43.315018,"longitud":-2.6775553},{"idAloj":0,"tipo":"Alojamientos","nombre":"BOULEVARD VITORIA-GASTEIZ","descripcion":"Sercoltel Hotel Boulevard Vitoria-Gasteiz está situado en el tranquilo barrio de Zaramaga,...","direccion":"Zaramaga  3","localidad":"Vitoria-Gasteiz","telefono":"945180400","email":"hotelboulevard@hotelboulevard.es","web":"https://www.boulevardvitoriahotel.com","capacidad":168,"latitud":42.860554,"longitud":-2.6633048},{"idAloj":0,"tipo":"Alojamientos","nombre":"BOULEVART DONOSTIA","descripcion":"La pensión BoulevArt Donostia está ubicada en pleno corazón de la ciudad, en...","direccion":"Okendo Kalea, Nº 2","localidad":"San Sebastián","telefono":" ","email":"donostiland@gmail.com","web":"http://boulevartdonostia.com/inicio/","capacidad":11,"latitud":43.32261,"longitud":-1.9819006},{"idAloj":0,"tipo":"Alojamientos","nombre":"BOWLING","descripcion":"Pensión de dos estrellas ubicada en el municipio fronterizo de Irun. Dispone de 16 habitaciones c...","direccion":"Mourlane Michelena  4","localidad":"Montes y Valles vascos","telefono":"615142048","email":"ander@pensionbowlingirun.com","web":"www.pensionbowlingirun.com","capacidad":50,"latitud":43.3404,"longitud":-1.7965419},{"idAloj":0,"tipo":"Alojamientos","nombre":"CASUAL GUREA","descripcion":"Pensión de dos estrellas ubicada en un edificio histórico del Casco Viejo de Bilbao. Dispone de h...","direccion":"Bidebarrieta  14","localidad":"Bilbao","telefono":"944163299","email":"casualbilbaogurea@casualhoteles.com","web":"www.casualgurea.com","capacidad":45,"latitud":43.25793,"longitud":-2.924333},{"idAloj":0,"tipo":"Alojamientos","nombre":"CASUAL DE LAS OLAS SAN SEBASTIAN","descripcion":"Casual de las Olas es un alojamiento que, siguiendo la línea de la cadena hotelera Casual,...","direccion":"Plaza Pio XII","localidad":"San Sebastián","telefono":"943055000","email":"olas@casualhoteles.com","web":"https://casualhoteles.com","capacidad":115,"latitud":43.306953,"longitud":-1.9795972},{"idAloj":0,"tipo":"Alojamientos","nombre":"CASTILLO EL COLLADO","descripcion":"Este precioso hotel con encanto ocupa un castillo de excepcional belleza, que  data del siglo XX ...","direccion":"Plaza Nueva 1","localidad":"Rioja Alavesa","telefono":"945621200","email":"hotel@hotelcollado.com","web":"http://www.hotelcollado.com","capacidad":19,"latitud":42.555557,"longitud":-2.584738},{"idAloj":0,"tipo":"Alojamientos","nombre":"CASTILLO DE ARTEAGA","descripcion":"Torre neogótica de piedra caliza y mármoles de Ereño ubicada en el corazón de la Reserva de Urdai...","direccion":"Gaztelubide 7","localidad":"Costa Vasca,Montes y Valles vascos","telefono":"946240012","email":"info@castillodearteaga.com","web":"http://www.castillodearteaga.com/","capacidad":26,"latitud":43.35195,"longitud":-2.6541176},{"idAloj":0,"tipo":"Alojamientos","nombre":"CENTRO VITORIA","descripcion":"El Hotel Centro Vitoria cuenta con un moderno sistema de registro, en el que a través de un escán...","direccion":"General Alava  11","localidad":"Vitoria-Gasteiz","telefono":"945138245","email":"info@hotelcentrovitoria.com","web":"www.hotelcentrovitoria.com","capacidad":66,"latitud":42.845352,"longitud":-2.671245},{"idAloj":0,"tipo":"Alojamientos","nombre":"CENTRAL ROOMSS","descripcion":"Situado en plena plaza de la Constitución, en el corazón de la parte vieja de la ciudad. La princ...","direccion":"Plaza Constitución 6","localidad":"San Sebastián","telefono":"610521092","email":"santiarreseigor@hotmail.com","web":"www.hello@centralroomss.com","capacidad":11,"latitud":43.323837,"longitud":-1.9847283},{"idAloj":0,"tipo":"Alojamientos","nombre":"CENTRAL","descripcion":"Moderno establecimiento hotelero situado junto a la Plaza Moyua, centro neurálgico del comercio, ...","direccion":"Rekalde  35-A","localidad":"Bilbao","telefono":"944 106 339","email":"reservas@hostalcentral.com","web":"http://www.hostalcentral.com","capacidad":16,"latitud":43.26177,"longitud":-2.9353218},{"idAloj":0,"tipo":"Alojamientos","nombre":"CASUAL SERANTES","descripcion":"Serantes se encuentra en el Casco Viejo de Bilbao, en una de las zonas con mayor interés turístic...","direccion":"Somera  14","localidad":"Bilbao","telefono":"944151557","email":"direccion@casualserantes.com","web":"www.casualserantes.com","capacidad":13,"latitud":43.256542,"longitud":-2.9226747},{"idAloj":0,"tipo":"Alojamientos","nombre":"CARLTON","descripcion":"El Hotel Carlton, situado en el centro de Bilbao, es uno de los edificios más emblemáticos de la ...","direccion":"Federico Moyua Plaza 2","localidad":"Bilbao","telefono":"944 162 200","email":"carlton@aranzazu-hoteles.com","web":"http://www.hotelcarlton.es","capacidad":270,"latitud":43.262436,"longitud":-2.934899},{"idAloj":0,"tipo":"Alojamientos","nombre":"CARBALLO","descripcion":"Este alojamiento goza de una céntrica ubicación en Bilbao, a 5 minutos a pie de la estación de tr...","direccion":"Bailén  33","localidad":"Bilbao","telefono":"605740186","email":"inesvaranda72@gmail.com","web":" ","capacidad":10,"latitud":43.257072,"longitud":-2.9297385},{"idAloj":0,"tipo":"Alojamientos","nombre":"CARAVAN CINEMA","descripcion":"Las cinco habitaciones con baño privado de este alojamiento recuerdan al mundo del cine, cada una...","direccion":"Correo 11","localidad":"Bilbao","telefono":"688860907","email":"info@caravan-cinema.com","web":"www.caravan-cinema.com","capacidad":9,"latitud":43.25874,"longitud":-2.9234374},{"idAloj":0,"tipo":"Alojamientos","nombre":"CAMAS MARI","descripcion":"La pensión Camas Mari está ubicada en el centro de Vitoria-Gasteiz, muy cerca del Artium.  Este m...","direccion":"Prudencio María Verastegui  6","localidad":"Vitoria-Gasteiz","telefono":"945277303","email":"pension@camasmari.com","web":"http://www.camasmari.com/","capacidad":16,"latitud":42.84856,"longitud":-2.6684},{"idAloj":0,"tipo":"Alojamientos","nombre":"CASTILLO","descripcion":"Hotel ubicado en el municipio guipuzcoano de Olaberria, en la comarca de Goierri. El hotel dispon...","direccion":"Basozabal Industrialdea 4","localidad":"Montes y Valles vascos","telefono":"943881958","email":"recepcion@hotelcastillo.info","web":" ","capacidad":56,"latitud":43.041794,"longitud":-2.2152472},{"idAloj":0,"tipo":"Alojamientos","nombre":"CASA NICOLASA","descripcion":"Casa Nicolasa se sitúa en el barrio viejo de San Sebastián a 5 minutos de la playa de La Concha y...","direccion":"Aldamar  4","localidad":"San Sebastián","telefono":"943430143","email":"info@pensioncasanicolasa.com","web":"www.pensioncasanicolasa.com","capacidad":23,"latitud":43.32323,"longitud":-1.9820987},{"idAloj":0,"tipo":"Alojamientos","nombre":"CASA LAFUENTE","descripcion":"Casa Lafuente ofrece al visitante la oportunidad de disfrutar de unos días de relax rodeados de n...","direccion":"San Roque  3","localidad":"Montes y Valles vascos","telefono":"945462460","email":"info@casalafuente.com","web":"http://www.casalafuente.com","capacidad":24,"latitud":42.931416,"longitud":-2.8572178},{"idAloj":0,"tipo":"Alojamientos","nombre":"CASA 400","descripcion":"Pensión ubicada en la zona comercial y peatonal de la capital alavesa, junto a la catedral vieja ...","direccion":"La Florida 46","localidad":"Vitoria-Gasteiz","telefono":"945233887","email":"pgandiaga@telefonica.net","web":"http://www.telefonica.net/web2/casa400/index.htm","capacidad":15,"latitud":42.84277,"longitud":-2.6703506},{"idAloj":0,"tipo":"Alojamientos","nombre":"DOLAREA","descripcion":"Un hermoso caserío del siglo XVII convertido en hotel de lujo. Así puede definirse el hotel Dolar...","direccion":"Nafarroa Etorbidea 57","localidad":"Montes y Valles vascos","telefono":"943 889 888","email":"info@hoteldolarea.com","web":"http://www.hoteldolarea.com/","capacidad":37,"latitud":43.047398,"longitud":-2.2077682},{"idAloj":0,"tipo":"Alojamientos","nombre":"DOMAIKA","descripcion":"La pensión Domaika se encuentra en una zona industrial de Vitoria-Gasteiz en la que se con...","direccion":"Avenida Los Huetos, 62","localidad":"Vitoria-Gasteiz","telefono":" ","email":" ","web":" ","capacidad":19,"latitud":42.857445,"longitud":-2.71751},{"idAloj":0,"tipo":"Alojamientos","nombre":"DESIDERIO","descripcion":"Hotel situado en pleno centro de la capital alavesa. Dispone de habitaciones dobles e individuale...","direccion":"Colegio de San Prudencio  2","localidad":"Vitoria-Gasteiz","telefono":"945251700","email":"reservas@hoteldesiderio.es","web":"http://www.hoteldesiderio.es","capacidad":39,"latitud":42.84897,"longitud":-2.669728},{"idAloj":0,"tipo":"Alojamientos","nombre":"DISTRITO OESTE","descripcion":"Distrito Oeste es un hotel situado en el barrio del Antiguo de San Sebastián, en la zona r...","direccion":"Zarautz Etor., 82","localidad":"Costa Vasca,San Sebastián","telefono":"943949999","email":"reservas@hoteldistritooeste.com","web":" ","capacidad":63,"latitud":43.30604,"longitud":-2.0058637},{"idAloj":0,"tipo":"Alojamientos","nombre":"DONOSTI","descripcion":"Hotel familiar ubicado en una zona tranquila de San Sebastián, bien comunicada con el centro de l...","direccion":"Luis Pradera  7","localidad":"Costa Vasca,San Sebastián","telefono":"943 288 765","email":"reservas@hoteldonosti.com","web":"http://www.hoteldonosti.com/","capacidad":19,"latitud":43.32086,"longitud":-1.9476008},{"idAloj":0,"tipo":"Alojamientos","nombre":"DONOSTIARRA","descripcion":"Pensión de dos estrellas situada en pleno núcleo de la ciudad a tan sólo de 10 minutos de la play...","direccion":"San Martín  6","localidad":"San Sebastián,Costa Vasca","telefono":"943 426 167","email":"informacion@pensiondonostiarra.com","web":"http://www.pensiondonostiarra.com","capacidad":29,"latitud":43.318165,"longitud":-1.9803799},{"idAloj":0,"tipo":"Alojamientos","nombre":"DON CECILIO","descripcion":"El alojamiento Don Cecilio refleja a la perfección el espíritu de San Sebastián: Una ciudad cosmo...","direccion":"Calle Legazpi 6, 1º","localidad":"Costa Vasca,San Sebastián","telefono":"608876256","email":" ","web":"www.doncecilio.com","capacidad":17,"latitud":43.322113,"longitud":-1.9823682},{"idAloj":0,"tipo":"Alojamientos","nombre":"DON CLAUDIO","descripcion":"La Pensión Don Claudio está situada junto a la estación de tren a Bilbao, a 2 km de la Feria de B...","direccion":"Hermogenes Rojo  10","localidad":"Bilbao","telefono":"944905017","email":"hostaldonclaudio@hotmail.com","web":"http://www.pensiondonclaudio.com/es/presentacion","capacidad":41,"latitud":43.277794,"longitud":-2.9732525},{"idAloj":0,"tipo":"Alojamientos","nombre":"CONDE DUQUE BILBAO","descripcion":"Hotel de tres estrellas de la cadena Best Western. Está situado en una zona tranquila del centro ...","direccion":"Campo Volantín  22","localidad":"Bilbao","telefono":"944456000","email":"reservas@hotelcondeduque.com","web":"hotelcondeduque.com","capacidad":107,"latitud":43.266636,"longitud":-2.9268374},{"idAloj":0,"tipo":"Alojamientos","nombre":"COSMOV","descripcion":"Situado en pleno centro de Bilbao, a solo cinco minutos del Museo Guggenheim y muy cerca de las z...","direccion":"Recalde  Zumardia/Alameda, Nº 12","localidad":"Bilbao","telefono":"944015454","email":"direccion@cosmovbilbaohotel.com","web":"http://www.cosmovbilbaohotel.com","capacidad":49,"latitud":43.266266,"longitud":-2.9338033},{"idAloj":0,"tipo":"Alojamientos","nombre":"CODINA","descripcion":"Hotel de tres estrellas situado a escasos metros de la playa de Ondarreta, cerca del centro urban...","direccion":"Zumalakarregi  21","localidad":"Costa Vasca,San Sebastián","telefono":"943 212 200","email":"info@hotelcodina.es","web":"http://www.hotelcodina.es","capacidad":116,"latitud":43.313442,"longitud":-2.0045},{"idAloj":0,"tipo":"Alojamientos","nombre":"COFRADIA","descripcion":"Los Apartamentos Hondarribi se ubican en un moderno edificio, frente al mar. Conforman el alojami...","direccion":"Bernat Etxepare  16","localidad":"Costa Vasca","telefono":"943635347","email":" ","web":" ","capacidad":65,"latitud":43.36683,"longitud":-1.7932081},{"idAloj":0,"tipo":"Alojamientos","nombre":"DE LA FUENTE","descripcion":"En el Casco Viejo de Bilbao, la pensión de La Fuente está ubicada a cinco minutos de la estación ...","direccion":"Sombrerería  2","localidad":"Bilbao","telefono":"944 169 989","email":"hostal.delafuente@gmail.com","web":"http://www.pensiondelafuente.com/","capacidad":22,"latitud":43.25851,"longitud":-2.9234285},{"idAloj":0,"tipo":"Alojamientos","nombre":"DE LONDRES Y DE INGLATERRA","descripcion":"Alojamiento de lujo, edificado en el siglo XIX, de estilo romántico y con las más modernas instal...","direccion":"Zubieta  2","localidad":"Costa Vasca,San Sebastián","telefono":"943 440 770","email":"reservas@hlondres.com","web":"http://www.hlondres.com","capacidad":317,"latitud":43.318066,"longitud":-1.9849323},{"idAloj":0,"tipo":"Alojamientos","nombre":"DATO 2","descripcion":"Pensión de 2 estrellas ubicada en la capital de Euskadi. Dispone de 15 habitaciones dobles provis...","direccion":"San Antonio 17","localidad":"Vitoria-Gasteiz","telefono":"945130400","email":"info@hoteldato.com","web":"http://www.dato2.com","capacidad":30,"latitud":42.844063,"longitud":-2.674252},{"idAloj":0,"tipo":"Alojamientos","nombre":"DATO 28","descripcion":"Hotel located in the city centre of Vitoria. It holds up to 28 clients, that is the reason why th...","direccion":"Eduardo Dato 28","localidad":"Vitoria-Gasteiz","telefono":"945147230","email":"info@hoteldato.com","web":"www.hoteldato.com","capacidad":28,"latitud":42.84364,"longitud":-2.6726134},{"idAloj":0,"tipo":"Alojamientos","nombre":"EL ACEBAL-BIZKAR BARE","descripcion":"Bizkar Bare son unos apartamentos turísticos situados en la colina de El Acebal, en la loc...","direccion":"Arce Auzoa, 7","localidad":"Montes y Valles vascos","telefono":" ","email":" ","web":"https://www.bizkar-bare.com/","capacidad":24,"latitud":43.25636,"longitud":-3.134519},{"idAloj":0,"tipo":"Alojamientos","nombre":"EL ABRA","descripcion":"Ubicado en el centro de Las Arenas, la zona urbana y comercial de Getxo, situado en la margen der...","direccion":"Amistad 10","localidad":"Costa Vasca","telefono":"944 638 136","email":" ","web":" ","capacidad":13,"latitud":43.325233,"longitud":-3.0148826},{"idAloj":0,"tipo":"Alojamientos","nombre":"EL COTO","descripcion":"Caserío restaurado en julio de 2008 que combina el encanto de una casa rural con unas instalacion...","direccion":"Lermanda 7","localidad":"Vitoria-Gasteiz","telefono":"945291252","email":"reservas@hotelelcoto.es","web":"http://hotelelcoto.es","capacidad":16,"latitud":42.846443,"longitud":-2.74469},{"idAloj":0,"tipo":"Alojamientos","nombre":"EL CASERON","descripcion":"Hotel de cuatro estrellas situado en un antiguo caserón del bosque de Armentia, a 4 kilómetros de...","direccion":"Hospitaleros 7","localidad":"Vitoria-Gasteiz","telefono":"945230048","email":"juncal@elcaseron.net","web":"www.elcaseron.net","capacidad":8,"latitud":42.83635,"longitud":-2.701676},{"idAloj":0,"tipo":"Alojamientos","nombre":"EGUILETA","descripcion":"La pensión Eguileta está situada en pleno casco histórico de Vitoria-Gasteiz, justo al lado de la...","direccion":"Nueva Fuera  32","localidad":"Vitoria-Gasteiz","telefono":"945251700","email":" ","web":" ","capacidad":35,"latitud":42.848606,"longitud":-2.672295},{"idAloj":0,"tipo":"Alojamientos","nombre":"EGONA TOURIST HOMES-MUTXIO Y MOLLARRI","descripcion":"En primera línea de playaLos alojamientos está ubicados en uno de los enclaves turísticos más...","direccion":"Balea kalea 4","localidad":"Costa Vasca","telefono":"679080946","email":"egonazarautz@gmail.com","web":"www.egona.net","capacidad":8,"latitud":43.286953,"longitud":-2.1731129},{"idAloj":0,"tipo":"Alojamientos","nombre":"EKIA","descripcion":"Acogedora pensión situada en el centro de la localidad costera de Zarautz, junto a la playa y a l...","direccion":"Elizaurre  3","localidad":"Costa Vasca","telefono":"943 010 664","email":"info@ekiapentsioa.com","web":"http://www.ekiapentsioa.com","capacidad":12,"latitud":43.286346,"longitud":-2.1772115},{"idAloj":0,"tipo":"Alojamientos","nombre":"EGUREN UGARTE","descripcion":"El Hotel Eguren Ugarte, en pleno corazón de Rioja Alavesa, ofrece la oportunidad de dormir...","direccion":"Páganos Entitatea A  0-A","localidad":"Rioja Alavesa","telefono":"945 600 766","email":"reservas@egurenugarte.com","web":"http://hotelegurenugarte.com/","capacidad":39,"latitud":42.56979,"longitud":-2.6139145},{"idAloj":0,"tipo":"Alojamientos","nombre":"EDIFICIO ATXURI","descripcion":"Los apartamentos Atxuri, situados en la capital vizcaína, combinan los servicios propios de un ho...","direccion":"Miraflores Etorbidea 17","localidad":"Bilbao","telefono":"944667832","email":"atxuri@nepor.net","web":"www.apartamentosatxuri.com","capacidad":251,"latitud":43.25058,"longitud":-2.9208183},{"idAloj":0,"tipo":"Alojamientos","nombre":"EASO","descripcion":"La pensión Easo se encuentra en el centro de San Sebastián, cerca del Ayuntamiento, la Parte Viej...","direccion":"San Bartolome  24","localidad":"Costa Vasca,San Sebastián","telefono":"943 453 912","email":"info@pensioneaso.com","web":"http://www.pensioneaso.com","capacidad":11,"latitud":43.315426,"longitud":-1.9855971},{"idAloj":0,"tipo":"Alojamientos","nombre":"EDORTA","descripcion":"En pleno corazón de San Sebastián, el establecimiento está en un edificio de más de 150 años, con...","direccion":"Puerto  15","localidad":"San Sebastián","telefono":"943 423 773","email":"info@pensionedorta.com","web":"http://www.pensionedorta.com/","capacidad":17,"latitud":43.323277,"longitud":-1.9864773},{"idAloj":0,"tipo":"Alojamientos","nombre":"EDIFICIO SANTIAGO","descripcion":"Edificio de nueva arquitectura, ubicado en el centro de Bilbao, que dispone de 35 apartamentos de...","direccion":"Licenciado Poza  12","localidad":"Bilbao","telefono":"944703920","email":"reservas@edificiosantiago.com","web":"www.edificiosantiago.com","capacidad":156,"latitud":43.26119,"longitud":-2.9364305},{"idAloj":0,"tipo":"Alojamientos","nombre":"DUQUE DE WELLINGTON","descripcion":"Hotel de 2 estrellas ubicado en la zona de Lakua. Está muy cerca de las vías de comunicación más ...","direccion":"Duque de Wellington 14","localidad":"Vitoria-Gasteiz","telefono":"945175707","email":"hotelduque@gobeopark.com","web":"www.hotelesenvitoria.com","capacidad":58,"latitud":42.863167,"longitud":-2.6940851},{"idAloj":0,"tipo":"Alojamientos","nombre":"DREAM PARK","descripcion":"Inaugurados en 2008, los apartamentos Dream Park están ubicados en el barrio residencial de Salbu...","direccion":"Avenida Bruselas 8","localidad":"Vitoria-Gasteiz","telefono":"609 378 139","email":"dreampark8@gmail.com","web":"http://www.alavaincoming.com/dreampark","capacidad":191,"latitud":42.850555,"longitud":-2.6511133},{"idAloj":0,"tipo":"Alojamientos","nombre":"EA-ASTEI","descripcion":"Además de la casa rural, Ea Astei, en un enclave natural privilegiado, en la Reserva de la Biosfe...","direccion":"Olagorta Auzoa 1","localidad":"Costa Vasca","telefono":"946276511","email":"info@astei.net","web":"http://www.astei.net/","capacidad":10,"latitud":43.36857,"longitud":-2.6148264},{"idAloj":0,"tipo":"Alojamientos","nombre":"DURTZI","descripcion":"Hotel de 1 estrella ubicado en el centro urbano de Lantarón. Dispone de 10 habitaciones con inter...","direccion":"La Presa 12","localidad":"Montes y Valles vascos","telefono":"945359078","email":"hoteldurzi@gmail.com","web":"http://www.hoteldurtzi.com","capacidad":18,"latitud":42.76673,"longitud":-3.0960202},{"idAloj":0,"tipo":"Alojamientos","nombre":"ENDAI","descripcion":"Ubicada muy cerca del mar, en una zona tranquila, entre las villas pesqueras de Lekeitio y Ondarr...","direccion":"Likoa Auzoa 52-A","localidad":"Costa Vasca","telefono":"946842469","email":"campingendai@gmail.com","web":" ","capacidad":19,"latitud":43.354534,"longitud":-2.4853766},{"idAloj":0,"tipo":"Alojamientos","nombre":"ENDARA","descripcion":"Endara es el alojamiento ideal para disfrutar de la naturaleza en un entorno tranquilo, que al mi...","direccion":"Sagasti Bailara 13","localidad":"Costa Vasca,Montes y Valles vascos","telefono":"943 340 831","email":"info@endara.eu","web":"http://www.endara.eu","capacidad":12,"latitud":43.3278,"longitud":-1.8681049},{"idAloj":0,"tipo":"Alojamientos","nombre":"ENJOY COMFORT","descripcion":"Establecimiento céntrico y renovado, situado a 300 metros del Teatro Victoria Eugenia y del Palac...","direccion":"Nueva  5","localidad":"San Sebastián","telefono":"943 272 182","email":"jarriolairiondo@yahoo.es","web":" ","capacidad":9,"latitud":43.322376,"longitud":-1.9766266},{"idAloj":0,"tipo":"Alojamientos","nombre":"ERCILLA","descripcion":"Hotel de cuatro estrellas ubicado en el pleno corazón de Bilbao, muy cerca del Palacio Euskalduna...","direccion":"Ercilla 37-A","localidad":"Bilbao","telefono":"944 705 700","email":"ercilla@hotelercilla.es","web":"http://www.ercillahoteles.com","capacidad":537,"latitud":43.2611,"longitud":-2.9386268},{"idAloj":0,"tipo":"Alojamientos","nombre":"ELLAURI","descripcion":"Enclavado en las faldas de la mítica cumbre del Gorbeia, Ellauri es un pequeño hote...","direccion":"Altzusta Auzoa 42","localidad":"Montes y Valles vascos","telefono":"686077796","email":"info@ellauri.com","web":"www.ellauri.com","capacidad":19,"latitud":43.092884,"longitud":-2.7411177},{"idAloj":0,"tipo":"Alojamientos","nombre":"ELORRIO","descripcion":"Hotel de estilo moderno situado a las afueras del municipio vizcaíno de Elorrio. Dispone de 27 ha...","direccion":"San Agustín Auzoa 10","localidad":"Montes y Valles vascos","telefono":"946 231 555","email":"info@hotelelorrio.com","web":"http://www.hotelelorrio.com","capacidad":51,"latitud":43.131504,"longitud":-2.5584228},{"idAloj":0,"tipo":"Alojamientos","nombre":"EMBARCADERO","descripcion":"Hotel ubicado en el embarcadero de Las Arenas (Getxo), con vistas al mar. Se trata de un edificio...","direccion":"Zugatzarte etorbidea 51","localidad":"Costa Vasca,Bilbao","telefono":"944 803 100","email":"info@hotelembarcadero.com","web":"http://www.hotelembarcadero.com","capacidad":51,"latitud":43.33293,"longitud":-3.0118353},{"idAloj":0,"tipo":"Alojamientos","nombre":"EMILIO","descripcion":"Emilio es  un alojamiento situado en el emblemático Casco Viejo bilbaíno, junto a la zona comerci...","direccion":"Iturribide  102","localidad":"Bilbao","telefono":"944 332 973","email":" ","web":" ","capacidad":8,"latitud":43.255337,"longitud":-2.915795},{"idAloj":0,"tipo":"Alojamientos","nombre":"ELAI ETXEA BIRDING HOUSE","descripcion":"Elai etxea o ?la casa de la golondrina? recibe su nombre de los nidos que cuelgan de los aleros d...","direccion":"Santa Marina Kalea/Calle, Nº 2","localidad":"Montes y Valles vascos","telefono":" ","email":"josebamarkinez@gmail.com","web":"http://www.elaietxea.com","capacidad":13,"latitud":42.549686,"longitud":-2.6663072},{"idAloj":0,"tipo":"Alojamientos","nombre":"ELGUERO","descripcion":"Alojamiento ubicado en el barrio Elguero de Trapagaran, a sólo 12 km de Bilbao, 2 km del BEC (Bil...","direccion":"Elguero Auzoa 21","localidad":"Bilbao","telefono":"647 512 347","email":" ","web":"http://pensionelguero.es/","capacidad":20,"latitud":43.30252,"longitud":-3.0140254},{"idAloj":0,"tipo":"Alojamientos","nombre":"ELIZALDE","descripcion":"El Hotel Elizalde, situado cerca del Parque Natural de Aia, ofrece un refugio cálido y confortabl...","direccion":"Iparralde Etorbidea 1","localidad":"Montes y Valles vascos","telefono":"943 492 586","email":"info@hotelelizalde.com","web":"http://hotelelizalde.com/index.html","capacidad":25,"latitud":43.29997,"longitud":-1.859647},{"idAloj":0,"tipo":"Alojamientos","nombre":"ELIZETXE","descripcion":"Situada en el pequeño municipio de Errigoiti, en la Reserva de la Biosfera de Urdaibai, el establ...","direccion":"Elexalde Auzoa 9","localidad":"Montes y Valles vascos","telefono":"946256194","email":" ","web":"www.toprural.com","capacidad":23,"latitud":43.31416,"longitud":-2.725775},{"idAloj":0,"tipo":"Alojamientos","nombre":"EL PUERTO","descripcion":"Hotel situado en el centro urbano del municipio costero de Mundaka, muy cerca del puerto. Dispone...","direccion":"Portu 1","localidad":"Costa Vasca","telefono":"946876725","email":"info@hotelelpuerto.com","web":"www.hotelelpuerto.com","capacidad":21,"latitud":43.40782,"longitud":-2.698173},{"idAloj":0,"tipo":"Alojamientos","nombre":"EL PUERTO","descripcion":"Situada en la localidad marinera de Santurtzi, en la margen izquierda de la desembocadura del Ner...","direccion":"Simón Bolivar  2","localidad":"Costa Vasca","telefono":"946034758","email":"info@pensionelpuerto.com","web":"http://www.pensionelpuerto.com/","capacidad":9,"latitud":43.331875,"longitud":-3.0362866},{"idAloj":0,"tipo":"Alojamientos","nombre":"EL RINCON DE BAROJA","descripcion":"Apartamentos situados en un entorno natural, en la Montaña Alavesa, cerca de la Rioja Alav...","direccion":"Real, 21 - BAROJA","localidad":"Montes y Valles vascos","telefono":"945367075","email":"info@elrincondebaroja.com","web":"http://www.elrincondebaroja.com","capacidad":32,"latitud":42.665516,"longitud":-2.6910152},{"idAloj":0,"tipo":"Alojamientos","nombre":"EL VENTORRO","descripcion":"Esta pensión está situada en plena llanada alavesa, al pie del monte Baio, en San Román de San Mi...","direccion":"La Media Legua 1","localidad":"Rioja Alavesa","telefono":"945304372","email":" ","web":" ","capacidad":6,"latitud":42.86476,"longitud":-2.3193617},{"idAloj":0,"tipo":"Alojamientos","nombre":"EUROPA","descripcion":"Pensión de 2 estrellas ubicada en un edificio recientemente reformado. Se encuentra a un kilómetr...","direccion":"Iparralde Etorbidea 59","localidad":"Montes y Valles vascos","telefono":"943 622 144","email":"hotelaitana@hotelaitana.com","web":"http://www.pensioneuropa.com","capacidad":24,"latitud":43.349003,"longitud":-1.7864639},{"idAloj":0,"tipo":"Alojamientos","nombre":"EUROPA","descripcion":"Hotel que ocupa un edificio de estilo neoclásico totalmente renovado y ubicado a 50 metros de la ...","direccion":"San Martín  52","localidad":"Costa Vasca,San Sebastián","telefono":"943 470 880","email":"hoteleuropa@husa.es","web":"http://www.hotelhusaeuropa.com/","capacidad":129,"latitud":43.316395,"longitud":-1.9850482},{"idAloj":0,"tipo":"Alojamientos","nombre":"EUBA","descripcion":"Hotel de 3 estellas ubicado en el barrio Euba de Amorebieta-Etxano, muy cerca de Durango. Cuenta ...","direccion":"Euba Auzoa A z.g.","localidad":"Montes y Valles vascos","telefono":"946300630","email":"info@eubahotel.com","web":"http://www.eubahotel.com","capacidad":65,"latitud":43.192127,"longitud":-2.692458},{"idAloj":0,"tipo":"Alojamientos","nombre":"ETXEGANA","descripcion":"Hotel rural situado en el entorno privilegiado del Parque Natural de Gorbeia. Dispone de 13 elega...","direccion":"Ipiñaburu Auzoa 38","localidad":"Montes y Valles vascos","telefono":"946338448","email":"reservas@etxegana.com","web":"www.etxegana.com","capacidad":34,"latitud":0.0,"longitud":0.0},{"idAloj":0,"tipo":"Alojamientos","nombre":"ETXEBERRI","descripcion":"Hotel de ambiente clásico y familiar ubicado en el corazón de Gipuzkoa, rodeado de ...","direccion":"Etxeberri auzoa 3","localidad":"Montes y Valles vascos","telefono":"943 721 211","email":"hoteletxeberri@etxeberri.com","web":"http://www.etxeberri.com","capacidad":69,"latitud":43.10011,"longitud":-2.3156393},{"idAloj":0,"tipo":"Alojamientos","nombre":"ETXE AUNDI","descripcion":"Hotel-restaurante ubicado la casa solar de los Lazarraga, del siglo XIII. El hotel dispone de 12 ...","direccion":"Torreauzo Auzoa 10","localidad":"Montes y Valles vascos","telefono":"943 781 956","email":"reservas@etxeaundi.com","web":"http://www.etxeaundi.com","capacidad":22,"latitud":43.04349,"longitud":-2.42736},{"idAloj":0,"tipo":"Alojamientos","nombre":"ETH IRUN","descripcion":"Moderno hotel de estilo minimalista ubicado en un entorno privilegiado, rodeado de playas y monta...","direccion":"Comete Sarea  2","localidad":"Montes y Valles vascos","telefono":"943 634 100","email":"hotel@hoteleth.com","web":"http://www.hoteleth.com","capacidad":84,"latitud":43.337177,"longitud":-1.7529562},{"idAloj":0,"tipo":"Alojamientos","nombre":"ESTUDIOS LOW-COST","descripcion":"Pension de 2 estrellas ubicado en el pequeño municipio alavés de Alegría-Dulantzi. Dispone de 20 ...","direccion":"Fortaleza 9","localidad":"Montes y Valles vascos","telefono":" ","email":"casaantolin@hotmail.com","web":" ","capacidad":24,"latitud":0.0,"longitud":0.0},{"idAloj":0,"tipo":"Alojamientos","nombre":"ESTADIO","descripcion":"Hotel de dos estrellas ubicado en el centro de Bilbao, cerca del estadio de fútbol de San Mamés y...","direccion":"Juan Antonio Zunzunegui etorbidea 10","localidad":"Bilbao","telefono":"944 424 241","email":"hotelestadio@hotmail.com","web":"http://www.hotelestadio.net/","capacidad":30,"latitud":43.26152,"longitud":-2.9478016},{"idAloj":0,"tipo":"Alojamientos","nombre":"ERROTA","descripcion":"La Pensión Errota cuenta con nueve habitaciones exteriores, todas con calefacción, televisión y b...","direccion":"Intxaurrondo 54","localidad":"Montes y Valles vascos","telefono":"946216021","email":"errota@ibaizabalikastola.eus","web":"http://www.ibaizabalikastola.eus","capacidad":16,"latitud":43.16116,"longitud":-2.6305397},{"idAloj":0,"tipo":"Alojamientos","nombre":"ERREKALDE","descripcion":"El hotel Errekalde está ubicado en el municipio de Lezo, a tan sólo 5 kilóme...","direccion":"Gaintxurizketa Bidea z.g.","localidad":"Montes y Valles vascos","telefono":"943490285","email":"errekalde 22@yahoo.es","web":"www.errekaldehotela.com","capacidad":13,"latitud":0.0,"longitud":0.0},{"idAloj":0,"tipo":"Alojamientos","nombre":"ERREKAGAIN","descripcion":"Hotel de una estrellla situado en un castillo del Valle de Ayala. Dispone de 19 habitaciones dobl...","direccion":"La Isla de Ugarriza Auzoa 3","localidad":"Montes y Valles vascos","telefono":"946727975","email":"info@errekagain.com","web":"www.hotelerrekagain.com","capacidad":33,"latitud":43.152287,"longitud":-2.9406633},{"idAloj":0,"tipo":"Alojamientos","nombre":"ERREKA-ALDE","descripcion":"Situado en un entorno natural privilegiado, el hotel Erreka-Alde ofrece al visitante 30 preciosas...","direccion":"Eskauritza  20","localidad":"Bilbao","telefono":"944993420","email":"info@hotelerreka.com","web":"hotelerreka.com","capacidad":57,"latitud":43.26346,"longitud":-3.0188134},{"idAloj":0,"tipo":"Alojamientos","nombre":"ERREKA GUEÑES","descripcion":"Hotel ubicado en el interior de Bizkaia, entre verdes valles. Dispone de 14 habitaciones con baño...","direccion":"Lasier Auzoa 15","localidad":"Montes y Valles vascos","telefono":"946 690 330","email":"hotel@restauranteserreka.com","web":"http://www.restauranteserreka.com/hotelguenes.htm","capacidad":25,"latitud":43.206646,"longitud":-3.0876596},{"idAloj":0,"tipo":"Alojamientos","nombre":"ERMITABARRI","descripcion":"Enclavado en un edificio recuperado que fue la escuela del barrio de Ermitabarri, este alojamient...","direccion":"Barrio Ermitabarri 5","localidad":"Montes y Valles vascos","telefono":"946489048","email":" ","web":" ","capacidad":14,"latitud":43.149075,"longitud":-2.847737},{"idAloj":0,"tipo":"Alojamientos","nombre":"ERMINTXO","descripcion":"Hotel de nueva construcción situado en el pequeño municipio vizcaíno de Ea, en un hermoso entorno...","direccion":"Elexalde Auzoa 30 - Natxitua EA","localidad":"Costa Vasca","telefono":"946277700","email":"ermintxo@euskalnet.net","web":"www.euskalnet.net/ermintxo","capacidad":17,"latitud":43.381847,"longitud":-2.6137805},{"idAloj":0,"tipo":"Alojamientos","nombre":"GAZTAINUZKETA","descripcion":"Pequeño complejo turístico situado en un tranquilo y hermoso paraje de hayedos y pi...","direccion":"Diseminados Sakabanatua 43","localidad":"Montes y Valles vascos","telefono":"943714746","email":" ","web":" ","capacidad":30,"latitud":42.979195,"longitud":-2.5784626},{"idAloj":0,"tipo":"Alojamientos","nombre":"GAZTEATEGI","descripcion":"Este establecimiento que tiene terraza y jardín, se encuentra a 5 km de Zarautz, destino turístic...","direccion":"Elkano 120","localidad":"Montes y Valles vascos","telefono":"943 131 606","email":"gazteategi@gmail.com","web":" ","capacidad":15,"latitud":43.274384,"longitud":-2.1966202},{"idAloj":0,"tipo":"Alojamientos","nombre":"GARAZAR","descripcion":"Este  hotel de Mendexa, está situado en plena naturaleza, en el golfo de Bizkaia. En días claros ...","direccion":"Zelaia Auzoa 29","localidad":"Costa Vasca","telefono":"630739835","email":"garazaretxea@gmail.com","web":" ","capacidad":11,"latitud":43.345173,"longitud":-2.4782107},{"idAloj":0,"tipo":"Alojamientos","nombre":"GARIBAI","descripcion":"Este alojamiento está ubicado en la calle del mismo nombre en pleno centro de San Sebastián, en l...","direccion":"Garibai  22","localidad":"San Sebastián","telefono":"943424089","email":"info@pensiongaribai.com","web":"http://www.pensiongaribai.com","capacidad":21,"latitud":43.320534,"longitud":-1.983485},{"idAloj":0,"tipo":"Alojamientos","nombre":"GANEXA HOME ZARAUTZ","descripcion":"Los apartamentos Ganexa Home están ubicados en la localidad costera de Zarautz a 7 minutos...","direccion":"iturribide kalea 10","localidad":"Costa Vasca","telefono":"615723726","email":" ","web":" ","capacidad":7,"latitud":43.282616,"longitud":-2.1753712},{"idAloj":0,"tipo":"Alojamientos","nombre":"GARATE","descripcion":"A sólo 50 metros de la playa de la Concha y de los jardines de Alderdi Eder dispone de habitacion...","direccion":"San Martín  54","localidad":"San Sebastián","telefono":"943 473 643","email":"pilarfernandezgarate22@yahoo.es","web":"http://www.pensiongarate.com","capacidad":16,"latitud":43.316284,"longitud":-1.9852469},{"idAloj":0,"tipo":"Alojamientos","nombre":"GAMETXO","descripcion":"Hotel ubicado junto a las playas de Laga y Laida, cerca de Gernika-Lumo y de la Reserva de Urdaib...","direccion":"Gametxo Auzoa 3","localidad":"Costa Vasca","telefono":"946 277 710","email":"info@hotelgametxo.com","web":"http://www.hotelgametxo.com","capacidad":34,"latitud":43.398663,"longitud":-2.6612449},{"idAloj":0,"tipo":"Alojamientos","nombre":"GAMETXO APARTAMENDUA","descripcion":"Apartamentos ubicados junto a las playas de Laga y Laida, cerca de Gernika-Lumo y de la Reserva d...","direccion":"Gametxo Auzoa 3","localidad":"Costa Vasca","telefono":"946277710","email":"info@hotelgametxo.com","web":"www.hotelgametxo.com","capacidad":22,"latitud":43.398617,"longitud":-2.6611376},{"idAloj":0,"tipo":"Alojamientos","nombre":"GAINTZA","descripcion":"Gaintza es el lugar idóneo para disfrutar de la naturaleza y las vistas al mar. Se trata de un pe...","direccion":"San Prudentzio Auzoa 26","localidad":"Costa Vasca","telefono":"943896038","email":"info@hotelgaintza.com","web":"http://www.hotelgaintza.com","capacidad":11,"latitud":43.302555,"longitud":-2.2098348},{"idAloj":0,"tipo":"Alojamientos","nombre":"GALDAKAO","descripcion":"Esta pensión totalmente reformada dispone de habitaciones con baño propio y televisión. Muy cerca...","direccion":"Euskadi  3","localidad":"Montes y Valles vascos","telefono":"944 563 892","email":"hospegalda@euskalnet.net","web":"http://www.pensiongaldakao.com/","capacidad":19,"latitud":43.22982,"longitud":-2.8445365},{"idAloj":0,"tipo":"Alojamientos","nombre":"FLYSCH","descripcion":"El Hotel Flysch se encuentra a pocos metros de las visitas imprescindibles en Zumaia como son la ...","direccion":"San Telmo, 2","localidad":"Costa Vasca","telefono":"943245870","email":" ","web":"https://www.hotelflysch.com/","capacidad":36,"latitud":43.298336,"longitud":-2.258555},{"idAloj":0,"tipo":"Alojamientos","nombre":"FRANCIA","descripcion":"Está situada en el centro de la ciudad, en la misma calle que el Museo Artium. Desde este alojami...","direccion":"Francia  4","localidad":"Vitoria-Gasteiz","telefono":"945287380","email":" ","web":" ","capacidad":11,"latitud":42.84759,"longitud":-2.6677985},{"idAloj":0,"tipo":"Alojamientos","nombre":"Eibarrooms","descripcion":"Eibarrroms Auto Check-in es un alojamiento situado en el centro de Eibar que se caracteriza ...","direccion":"Ego Gain 17","localidad":"Montes y Valles vascos","telefono":" ","email":"reservaseibarrooms@gmail.com","web":"http://www.eibarrooms.com","capacidad":20,"latitud":43.183838,"longitud":-2.4760518},{"idAloj":0,"tipo":"Alojamientos","nombre":"FANY","descripcion":"La Pensión Fany se encuentra junto a la catedral del Buen Pasator, en la zona romántica de la ciu...","direccion":"San Bartolome  6","localidad":"San Sebastián","telefono":"943 421 128","email":" ","web":"http://www.pensionfany.com/","capacidad":9,"latitud":43.316463,"longitud":-1.9829005},{"idAloj":0,"tipo":"Alojamientos","nombre":"EZEIZA","descripcion":"Hotel de dos estrellas situado en la Bahía de la Concha, en primera línea de playa. Dispone de 30...","direccion":"Satrustegi Etorbidea 13","localidad":"Costa Vasca,San Sebastián","telefono":"943 214 311","email":"ezeiza@hotelezeiza.com","web":"http://www.hotelezeiza.com","capacidad":54,"latitud":43.316406,"longitud":-2.0047472},{"idAloj":0,"tipo":"Alojamientos","nombre":"EZKIZU","descripcion":"Alojamiento ubicado en el barrio de Santa Lucia-Anduaga de Ezkio-Itsaso.Dispone de 18 habitac...","direccion":"Santa Lutzi 22","localidad":"Montes y Valles vascos","telefono":"943 721 235","email":" ","web":" ","capacidad":18,"latitud":43.084473,"longitud":-2.2957687},{"idAloj":0,"tipo":"Alojamientos","nombre":"GRAN HOTEL LAKUA","descripcion":"El Gran Hotel Lakua, primer hotel de 5 estrellas de Vitoria-Gasteiz, dispone de 109 habitaciones,...","direccion":"Tarragona  8","localidad":"Vitoria-Gasteiz","telefono":"945181000","email":"informacion@granhotelakua.com","web":"www.granhotelakua.com","capacidad":280,"latitud":42.86887,"longitud":-2.6893904},{"idAloj":0,"tipo":"Alojamientos","nombre":"GRAN HOTEL DURANGO","descripcion":"Hotel de 4 estrellas ubicado en un hermoso edificio del municipio vizcaíno de Durango, cerca del ...","direccion":"Gasteiz Errepidea 2","localidad":"Montes y Valles vascos","telefono":"946 217 580","email":"recepcion@granhoteldurango.com","web":"http://www.granhoteldurango.com","capacidad":127,"latitud":43.16423,"longitud":-2.6328413},{"idAloj":0,"tipo":"Alojamientos","nombre":"GRAN HOTEL DOMINE BILBAO","descripcion":"Ubicado en pleno centro de Bilbao, frente al Museo Guggenheim, el Gran Hotel Domine de Bilbao tie...","direccion":"Mazarredo Zumardia 61","localidad":"Bilbao","telefono":"944253300","email":"sales@hoteldominebilbao.com","web":"www.hoteldominebilbao.com","capacidad":271,"latitud":43.267487,"longitud":-2.9338646},{"idAloj":0,"tipo":"Alojamientos","nombre":"GRAN HOTEL BALNEARIO DE CESTONA","descripcion":"Hotel construido en 1893 para alojar a quienes acudían a bañarse en las aguas del baneario desde ...","direccion":"Bainuetxeko Errepidea 12","localidad":"Montes y Valles vascos","telefono":"943 147 140","email":"reservas@relaistermal.com","web":"http://www.relaistermal.com","capacidad":229,"latitud":43.23281,"longitud":-2.257595},{"idAloj":0,"tipo":"Alojamientos","nombre":"GUDAMENDI","descripcion":"Pintoresco hotel de cuatro estrellas de arquitectura tradicional vasca y situado en un bello para...","direccion":"Gudamendi Bidea 26","localidad":"San Sebastián,Costa Vasca","telefono":"943 214 000","email":"reservas@hotelgudamendi.com","web":"http://www.hotelgudamendi.com","capacidad":82,"latitud":43.31345,"longitud":-2.0231864},{"idAloj":0,"tipo":"Alojamientos","nombre":"GROSEN","descripcion":"Ubicado en San Sebastián y a trescientos metros de la playa de la Zurriola, los apartamentos Gros...","direccion":"Navarra Etorbidea 30","localidad":"Costa Vasca,San Sebastián","telefono":" ","email":"info@pensiongrosen.com","web":"www.pensiongrosen.com","capacidad":12,"latitud":43.324024,"longitud":-1.968695},{"idAloj":0,"tipo":"Alojamientos","nombre":"GROSEN","descripcion":"Desde 2013, Pensión Grosen ofrece un cómodo y  moderno alojamiento en San Sebastián, muy cerca de...","direccion":"Navarra Etorbidea 30","localidad":"Costa Vasca,San Sebastián","telefono":"634 288 816","email":"info@pensiongrosen.com","web":"http://www.pensiongrosen.com","capacidad":8,"latitud":43.32406,"longitud":-1.9692242},{"idAloj":0,"tipo":"Alojamientos","nombre":"GRAN HOTEL PUENTE COLGANTE","descripcion":"Hotel de 3 estrellas ubicado en Portugalete, junto al Puente Colgante, en un edificio histórico d...","direccion":"María Diaz de Haro  2","localidad":"Costa Vasca,Bilbao","telefono":"944 014 800","email":"info@granhotelpuentecolgante.com","web":"http://www.granhotelpuentecolgante.com","capacidad":140,"latitud":43.32211,"longitud":-3.0174665},