[{"idAloj":0,"tipo":"Campings","nombre":"AITZETA","descripcion":"Camping situado muy cerca del centro urbano de Mutriku, sobre un monte y con vistas al mar. Tiene...","direccion":"Laranga Auzoa 35","localidad":"Mutriku","telefono":"943603356","email":"f.aitzeta@hotmail.com","web":"www.campingeuskadi.com/aitzeta","capacidad":271,"latitud":43.305122,"longitud":-2.378559},{"idAloj":1,"tipo":"Campings","nombre":"ANGOSTO","descripcion":"Camping de primera categoría ubicado en el alavés Valle de Valdegovía, cerca del Parque Natural d...","direccion":"Carretera Angosto, 2-BIS","localidad":"Valdegovía/Gaubea","telefono":"945353271","email":"info@camping-angosto.com","web":"www.camping-angosto.com","capacidad":244,"latitud":42.842476,"longitud":-3.0686822},{"idAloj":2,"tipo":"Campings","nombre":"ARRIEN","descripcion":"Camping situado en la Bahía de Gorliz, a 500 metros del núcleo urbano, en un hermoso entorno natu...","direccion":"Urezarantza Bidea 15","localidad":"Gorliz","telefono":"946771911","email":"recepcion@campinggorliz.com","web":"http://www.campinggorliz.com","capacidad":385,"latitud":43.41894,"longitud":-2.935857},{"idAloj":3,"tipo":"Campings","nombre":"AUTOCARAVANING KOBETAMENDI","descripcion":"Autocaravaning Kobetamendi ofrece a los turistas que viajen con caravana o autocaravana un espaci...","direccion":"Monte Kobeta 31","localidad":"Bilbao","telefono":"944205300","email":"kobetamendi@suspertu.net","web":"http://bilbaohostel.net/autocaravanas/","capacidad":40,"latitud":43.25892,"longitud":-2.9626489},{"idAloj":4,"tipo":"Campings","nombre":"Area Autocaravanas Igueldo San Sebastian","descripcion":"“Camping Bungalows Igueldo San Sebastián” está situado en un precioso l...","direccion":"Paseo Padre Orkolaga, 69","localidad":"Donostia / San Sebastián","telefono":"943214502","email":"oscar@campingigueldo.com","web":"http://www.campingigueldo.net/home/","capacidad":0,"latitud":43.305187,"longitud":-2.0458071},{"idAloj":5,"tipo":"Campings","nombre":"CAMPING BUNGALOWS IGUELDO SAN SEBASTIAN","descripcion":"Camping de primera categoría situado en San Sebastián, a 5 km de la playa, en un bello paraje ent...","direccion":"Padre Orkolaga Ibibidea 69","localidad":"Donostia / San Sebastián","telefono":"943214502","email":"info@campingigueldo.com","web":"www.campingigueldo.com","capacidad":901,"latitud":43.304127,"longitud":-2.0461504},{"idAloj":6,"tipo":"Campings","nombre":"EL ROBLE VERDE","descripcion":"El camping El Roble Verde está situado en el sur de Álava, entre los pueblos de Po...","direccion":"Lasierra, A Nº 0-B","localidad":"Erriberagoitia/Ribera Alta","telefono":"945063350","email":"info@campingelrobleverde.com","web":"http://www.campingelrobleverde.com","capacidad":434,"latitud":42.79539,"longitud":-2.8791528},{"idAloj":7,"tipo":"Campings","nombre":"ENDAI","descripcion":"Camping situado en plena montaña y cerca del mar, entre las villas pesqueras de Lekeitio y Ondarr...","direccion":"Likoa Auzoa 52-A","localidad":"Mendexa","telefono":"946842469","email":" ","web":"http://www.campingseuskadi.com/endai/","capacidad":238,"latitud":43.354404,"longitud":-2.485601},{"idAloj":8,"tipo":"Campings","nombre":"FARO DE HIGUER","descripcion":"Camping situado en el cabo de Higuer, en un lugar privilegiado entre el mar y la montaña, muy cer...","direccion":"Higer Bidea 58","localidad":"Hondarribia","telefono":"943641008","email":"faro@campingseuskadi.com","web":"http://www.campingseuskadi.com/faro","capacidad":416,"latitud":43.392296,"longitud":-1.7944976},{"idAloj":9,"tipo":"Campings","nombre":"GALDONA","descripcion":"Camping que ofrece una gran zona arbolada y zona verde donde poder acampar. Cuenta con todos los ...","direccion":"Galdona, 17","localidad":"Mutriku","telefono":"943603509","email":"mirengaldona@hotmail.com","web":"http://www.campingseuskadi.com/galdona","capacidad":120,"latitud":43.3175,"longitud":-2.4009194},{"idAloj":10,"tipo":"Campings","nombre":"GRAN CAMPING ZARAUZ","descripcion":"El Gran Camping Zarauz está situado en la falda del monte Talai-mendi, en el extremo oriental de ...","direccion":"Talaimendi Auzoa 725","localidad":"Zarautz","telefono":"943831238","email":"info@grancampingzarautz.com","web":"http://www.grancampingzarautz.com","capacidad":840,"latitud":43.289974,"longitud":-2.1463232},{"idAloj":11,"tipo":"Campings","nombre":"IBAYA","descripcion":"Camping situado a 5 kilómetros del centro de Vitoria-Gasteiz, en un entorno tranquilo donde se pu...","direccion":"Zuazo de Vitoria, 21","localidad":"Vitoria-Gasteiz","telefono":"945147620","email":"info@campingibaia.com","web":"http://www.campingibaia.com","capacidad":250,"latitud":42.83344,"longitud":-2.7224808},{"idAloj":12,"tipo":"Campings","nombre":"IGARA DE SAN SEBASTIAN","descripcion":"El camping Igara de San Sebastián está situado en un entorno tranquilo y rodeado de naturaleza, c...","direccion":"Igara Bidea 195","localidad":"Donostia / San Sebastián","telefono":"943374287","email":"info@campingdesansebastian.com","web":"http://www.campingigara.com","capacidad":373,"latitud":43.296722,"longitud":-2.0374212},{"idAloj":13,"tipo":"Campings","nombre":"ITXASPE","descripcion":"El camping Itxaspe se encuentra en el barrio Itxaspe de Deba, rodeado por un bello entorno natura...","direccion":"Itsaspe Auzoa 16","localidad":"Deba","telefono":"943199377","email":"itxaspe@hotmail.es","web":"http://www.campingitxaspe.com","capacidad":483,"latitud":43.294136,"longitud":-2.3296065},{"idAloj":14,"tipo":"Campings","nombre":"JAIZKIBEL","descripcion":"Camping situado en plena naturaleza, con montes y calas salvajes alrededor y muy cerca de la play...","direccion":"Akartegi Auzoa 26","localidad":"Hondarribia","telefono":"943641679","email":"recepcion@campingjaizkibel.com","web":"http://www.campingjaizkibel.com","capacidad":240,"latitud":43.36622,"longitud":-1.8053198},{"idAloj":15,"tipo":"Campings","nombre":"LAKIOLA","descripcion":"Este pequeño pero acogedor camping se encuentra situado en el interior de Gipuzkoa, rodeado de un...","direccion":"Urtatza-Egialdea Auzoa 18","localidad":"Legazpi","telefono":"649577442","email":"campinglakiola@gmail.com","web":"http://www.lakiolacampingrural.com","capacidad":20,"latitud":43.054314,"longitud":-2.3338342},{"idAloj":16,"tipo":"Campings","nombre":"OLIDEN","descripcion":"Camping situado al borde de la carretera N-1. Dispone de capacidad para 235 personas en verdes pa...","direccion":"N-1 Errepidea, 2","localidad":"Oiartzun","telefono":"943490728","email":"campingoliden@hotmail.com","web":"http://www.campingoliden.com/index.php/es/","capacidad":235,"latitud":43.307724,"longitud":-1.8804216},{"idAloj":17,"tipo":"Campings","nombre":"LEAGI","descripcion":"Camping ubicado en la cumbrera del río Lea, cerca de la costa, combinando el ambiente rural con e...","direccion":"Leagi Auzoa 4","localidad":"Mendexa","telefono":"946842352","email":"leagi@campingleagi.com","web":"http://www.campingleagi.com","capacidad":622,"latitud":43.351795,"longitud":-2.4938574},{"idAloj":18,"tipo":"Campings","nombre":"PORTUONDO","descripcion":"Camping de primera categoría ubicado en la Reserva de Urdaibai, en las afueras de Mundaka. Dispon...","direccion":"Portuondo Auzoa z.g.","localidad":"Mundaka","telefono":"946877701","email":"recepcion@campingportuondo.com","web":"www.campingportuondo.com","capacidad":344,"latitud":43.39903,"longitud":-2.6962557},{"idAloj":19,"tipo":"Campings","nombre":"PLAYA DE ORIO","descripcion":"Camping de primera categoría situado en la playa de Orio, rodeado de montañas y a un kilómetro de...","direccion":"Hondartza Bidea z.g.","localidad":"Orio","telefono":"943834801","email":"info@oriokanpina.com","web":"http://www.oriokanpina.com","capacidad":764,"latitud":43.286507,"longitud":-2.1258438},{"idAloj":20,"tipo":"Campings","nombre":"SATURRARAN","descripcion":"Camping rodeado de verde y a 100 metros de la playa. Ofrece la posibilidad de disfrutar de la nat...","direccion":"Mijoa, 27","localidad":"Mutriku","telefono":"943603847","email":"campingsaturraran@gmail.com","web":"http://www.campingseuskadi.com/saturraran-pss10/","capacidad":100,"latitud":43.316956,"longitud":-2.4111986},{"idAloj":21,"tipo":"Campings","nombre":"SANTA ELENA","descripcion":"Ubicado en lo alto de uno de los montes que rodean Mutriku, en plena naturaleza y con vistas al m...","direccion":"Galdona, 4","localidad":"Mutriku","telefono":"943603982","email":"info@camping-santaelena.com","web":"http://www.camping-santaelena.com/","capacidad":120,"latitud":43.313103,"longitud":-2.3940384},{"idAloj":22,"tipo":"Campings","nombre":"TALAI MENDI","descripcion":"Camping situado en el municipio costero de Zarautz. Dispone de espacio para caravanas y tiendas d...","direccion":"Talaimendi Auzoa 720","localidad":"Zarautz","telefono":"943830042","email":"talaimendi@campingseuskadi.com","web":"http://www.campingseuskadi.com/talaimendi","capacidad":900,"latitud":43.286022,"longitud":-2.155167},{"idAloj":23,"tipo":"Campings","nombre":"SOPELANA","descripcion":"Camping situado en el municipio costero de Sopela. Se encuentra a 150 metros de la playa y dispon...","direccion":"Atxabiribil Etorbidea 30","localidad":"Sopela","telefono":"946761981","email":"recepcion@campingsopelana.com","web":"http://www.campingsopelana.com","capacidad":600,"latitud":43.389244,"longitud":-2.9857903},{"idAloj":24,"tipo":"Campings","nombre":"ZUMAIA","descripcion":"Este camping, ubicado en Zumaia, está rodeado de verdes montes que descienden hasta el mar...","direccion":"Basusta Bidea 16","localidad":"Zumaia","telefono":"943860475","email":"juanluis@campingzumaia.com","web":"https://www.campingzumaia.com/es/","capacidad":497,"latitud":43.289097,"longitud":-2.2477846},{"idAloj":25,"tipo":"Campings","nombre":"ZINGIRA","descripcion":"Camping situado en la localidad rural de Aia, entre el Parque Natural de Pagoeta y las playas de ...","direccion":"Olaskoegia Auzoa 40","localidad":"Aia","telefono":"943132079","email":"zingirasl@gmail.com","web":"http://www.campingseuskadi.com/zingira/","capacidad":500,"latitud":43.25584,"longitud":-2.1310241},{"idAloj":26,"tipo":"Campings","nombre":"ÁREA AUTOCARAVANAS Y CARAVANAS LANESTOSA","descripcion":"El parking se ubica en una zona verde de 6000 metros, dividida en 22 parcelas valladas, con pared...","direccion":"Mirabueno 6 BIS","localidad":"Lanestosa","telefono":"675716161","email":" ","web":"http://www.lanestosa.net/es/turismo-es/area-de-autocaravanas.html","capacidad":0,"latitud":43.219307,"longitud":-3.4403696}]